Home{street='17 SERASPI CT', city='SACRAMENTO', zip='95834', state='CA', beds=0, baths=0, sq_ft=0, type=Residential, sale_data=Wed May 21 06:00:00 CEST 2008, price=206000.0, lattitude=38.631481, longtitude=-121.50188}
Home{street='170 PENHOW CIR', city='SACRAMENTO', zip='95834', state='CA', beds=3, baths=2, sq_ft=1511, type=Residential, sale_data=Wed May 21 06:00:00 CEST 2008, price=208000.0, lattitude=38.653439, longtitude=-121.535169}
Home{street='8345 STAR THISTLE WAY', city='SACRAMENTO', zip='95823', state='CA', beds=4, baths=2, sq_ft=1590, type=Residential, sale_data=Wed May 21 06:00:00 CEST 2008, price=212864.0, lattitude=38.454349, longtitude=-121.439239}
Home{street='9080 FRESCA WAY', city='ELK GROVE', zip='95758', state='CA', beds=4, baths=2, sq_ft=1596, type=Residential, sale_data=Wed May 21 06:00:00 CEST 2008, price=221000.0, lattitude=38.427818, longtitude=-121.424026}
Home{street='391 NATALINO CIR', city='SACRAMENTO', zip='95835', state='CA', beds=2, baths=2, sq_ft=1341, type=Residential, sale_data=Wed May 21 06:00:00 CEST 2008, price=221000.0, lattitude=38.67307, longtitude=-121.506373}
Home{street='8373 BLACKMAN WAY', city='ELK GROVE', zip='95624', state='CA', beds=5, baths=3, sq_ft=2136, type=Residential, sale_data=Wed May 21 06:00:00 CEST 2008, price=223058.0, lattitude=38.435436, longtitude=-121.394536}
Home{street='9837 CORTE DORADO CT', city='ELK GROVE', zip='95624', state='CA', beds=4, baths=2, sq_ft=1616, type=Residential, sale_data=Wed May 21 06:00:00 CEST 2008, price=227887.0, lattitude=38.400676, longtitude=-121.38101}
Home{street='5037 J PKWY', city='SACRAMENTO', zip='95823', state='CA', beds=3, baths=2, sq_ft=1478, type=Residential, sale_data=Wed May 21 06:00:00 CEST 2008, price=231477.0, lattitude=38.491399, longtitude=-121.443547}
Home{street='10245 LOS PALOS DR', city='RANCHO CORDOVA', zip='95670', state='CA', beds=3, baths=2, sq_ft=1287, type=Residential, sale_data=Wed May 21 06:00:00 CEST 2008, price=234697.0, lattitude=38.593699, longtitude=-121.31089}
Home{street='6613 NAVION DR', city='CITRUS HEIGHTS', zip='95621', state='CA', beds=4, baths=2, sq_ft=1277, type=Residential, sale_data=Wed May 21 06:00:00 CEST 2008, price=235000.0, lattitude=38.702855, longtitude=-121.31308}
Home{street='2887 AZEVEDO DR', city='SACRAMENTO', zip='95833', state='CA', beds=4, baths=2, sq_ft=1448, type=Residential, sale_data=Wed May 21 06:00:00 CEST 2008, price=236000.0, lattitude=38.618457, longtitude=-121.509439}
Home{street='9186 KINBRACE CT', city='SACRAMENTO', zip='95829', state='CA', beds=4, baths=3, sq_ft=2235, type=Residential, sale_data=Wed May 21 06:00:00 CEST 2008, price=236685.0, lattitude=38.463355, longtitude=-121.358936}
Home{street='4243 MIDDLEBURY WAY', city='MATHER', zip='95655', state='CA', beds=3, baths=2, sq_ft=2093, type=Residential, sale_data=Wed May 21 06:00:00 CEST 2008, price=237800.0, lattitude=38.547991, longtitude=-121.280483}
Home{street='1028 FALLON PLACE CT', city='RIO LINDA', zip='95673', state='CA', beds=3, baths=2, sq_ft=1193, type=Residential, sale_data=Wed May 21 06:00:00 CEST 2008, price=240122.0, lattitude=38.693818, longtitude=-121.441153}
Home{street='4804 NORIKER DR', city='ELK GROVE', zip='95757', state='CA', beds=3, baths=2, sq_ft=2163, type=Residential, sale_data=Wed May 21 06:00:00 CEST 2008, price=242638.0, lattitude=38.400974, longtitude=-121.448424}
Home{street='7713 HARVEST WOODS DR', city='SACRAMENTO', zip='95828', state='CA', beds=3, baths=2, sq_ft=1269, type=Residential, sale_data=Wed May 21 06:00:00 CEST 2008, price=244000.0, lattitude=38.478198, longtitude=-121.412911}
Home{street='2866 KARITSA AVE', city='SACRAMENTO', zip='95833', state='CA', beds=0, baths=0, sq_ft=0, type=Residential, sale_data=Wed May 21 06:00:00 CEST 2008, price=244500.0, lattitude=38.626671, longtitude=-121.52597}
Home{street='6913 RICHEVE WAY', city='SACRAMENTO', zip='95828', state='CA', beds=3, baths=1, sq_ft=958, type=Residential, sale_data=Wed May 21 06:00:00 CEST 2008, price=244960.0, lattitude=38.502519, longtitude=-121.420769}
Home{street='8636 TEGEA WAY', city='ELK GROVE', zip='95624', state='CA', beds=5, baths=3, sq_ft=2508, type=Residential, sale_data=Wed May 21 06:00:00 CEST 2008, price=245918.0, lattitude=38.443832, longtitude=-121.382087}
Home{street='5448 MAIDSTONE WAY', city='CITRUS HEIGHTS', zip='95621', state='CA', beds=3, baths=2, sq_ft=1305, type=Residential, sale_data=Wed May 21 06:00:00 CEST 2008, price=250000.0, lattitude=38.665395, longtitude=-121.293288}
Home{street='18 OLLIE CT', city='ELK GROVE', zip='95758', state='CA', beds=4, baths=2, sq_ft=1591, type=Residential, sale_data=Wed May 21 06:00:00 CEST 2008, price=250000.0, lattitude=38.444909, longtitude=-121.412345}
Home{street='4010 ALEX LN', city='CARMICHAEL', zip='95608', state='CA', beds=2, baths=2, sq_ft=1326, type=Condo, sale_data=Wed May 21 06:00:00 CEST 2008, price=250134.0, lattitude=38.637028, longtitude=-121.312963}
Home{street='4901 MILLNER WAY', city='ELK GROVE', zip='95757', state='CA', beds=3, baths=2, sq_ft=1843, type=Residential, sale_data=Wed May 21 06:00:00 CEST 2008, price=254200.0, lattitude=38.38692, longtitude=-121.447349}
Home{street='4818 BRITTNEY LEE CT', city='SACRAMENTO', zip='95841', state='CA', beds=4, baths=2, sq_ft=1921, type=Residential, sale_data=Wed May 21 06:00:00 CEST 2008, price=254200.0, lattitude=38.653917, longtitude=-121.34218}
Home{street='5529 LAGUNA PARK DR', city='ELK GROVE', zip='95758', state='CA', beds=5, baths=3, sq_ft=2790, type=Residential, sale_data=Wed May 21 06:00:00 CEST 2008, price=258000.0, lattitude=38.42568, longtitude=-121.438062}
Home{street='230 CANDELA CIR', city='SACRAMENTO', zip='95835', state='CA', beds=3, baths=2, sq_ft=1541, type=Residential, sale_data=Wed May 21 06:00:00 CEST 2008, price=260000.0, lattitude=38.656251, longtitude=-121.547572}
Home{street='4900 71ST ST', city='SACRAMENTO', zip='95820', state='CA', beds=3, baths=1, sq_ft=1018, type=Residential, sale_data=Wed May 21 06:00:00 CEST 2008, price=260014.0, lattitude=38.53151, longtitude=-121.421089}
Home{street='12209 CONSERVANCY WAY', city='RANCHO CORDOVA', zip='95742', state='CA', beds=0, baths=0, sq_ft=0, type=Residential, sale_data=Wed May 21 06:00:00 CEST 2008, price=263500.0, lattitude=38.553867, longtitude=-121.219141}
Home{street='4236 NATOMAS CENTRAL DR', city='SACRAMENTO', zip='95834', state='CA', beds=3, baths=2, sq_ft=1672, type=Condo, sale_data=Wed May 21 06:00:00 CEST 2008, price=265000.0, lattitude=38.648879, longtitude=-121.544023}
Home{street='5615 LUPIN LN', city='POLLOCK PINES', zip='95726', state='CA', beds=3, baths=2, sq_ft=1380, type=Residential, sale_data=Wed May 21 06:00:00 CEST 2008, price=265000.0, lattitude=38.708315, longtitude=-120.603872}
Home{street='5625 JAMES WAY', city='SACRAMENTO', zip='95822', state='CA', beds=3, baths=1, sq_ft=975, type=Residential, sale_data=Wed May 21 06:00:00 CEST 2008, price=271742.0, lattitude=38.523947, longtitude=-121.484946}
Home{street='7842 LAHONTAN CT', city='SACRAMENTO', zip='95829', state='CA', beds=4, baths=3, sq_ft=2372, type=Residential, sale_data=Wed May 21 06:00:00 CEST 2008, price=273750.0, lattitude=38.472976, longtitude=-121.318633}
Home{street='6850 21ST ST', city='SACRAMENTO', zip='95822', state='CA', beds=3, baths=2, sq_ft=1446, type=Residential, sale_data=Wed May 21 06:00:00 CEST 2008, price=275086.0, lattitude=38.502194, longtitude=-121.490795}
Home{street='2900 BLAIR RD', city='POLLOCK PINES', zip='95726', state='CA', beds=2, baths=2, sq_ft=1284, type=Residential, sale_data=Wed May 21 06:00:00 CEST 2008, price=280908.0, lattitude=38.75485, longtitude=-120.60476}
Home{street='2064 EXPEDITION WAY', city='SACRAMENTO', zip='95832', state='CA', beds=4, baths=3, sq_ft=3009, type=Residential, sale_data=Wed May 21 06:00:00 CEST 2008, price=280987.0, lattitude=38.474099, longtitude=-121.490711}
Home{street='2912 NORCADE CIR', city='SACRAMENTO', zip='95826', state='CA', beds=8, baths=4, sq_ft=3612, type=Multi-Family, sale_data=Wed May 21 06:00:00 CEST 2008, price=282400.0, lattitude=38.559505, longtitude=-121.364839}
Home{street='9507 SEA CLIFF WAY', city='ELK GROVE', zip='95758', state='CA', beds=4, baths=2, sq_ft=2056, type=Residential, sale_data=Wed May 21 06:00:00 CEST 2008, price=285000.0, lattitude=38.410992, longtitude=-121.479043}
Home{street='8882 AUTUMN GOLD CT', city='ELK GROVE', zip='95624', state='CA', beds=4, baths=2, sq_ft=1993, type=Residential, sale_data=Wed May 21 06:00:00 CEST 2008, price=287417.0, lattitude=38.4439, longtitude=-121.37255}
Home{street='5322 WHITE LOTUS WAY', city='ELK GROVE', zip='95757', state='CA', beds=3, baths=2, sq_ft=1857, type=Residential, sale_data=Wed May 21 06:00:00 CEST 2008, price=291000.0, lattitude=38.391538, longtitude=-121.442596}
Home{street='1838 CASTRO WAY', city='SACRAMENTO', zip='95818', state='CA', beds=2, baths=1, sq_ft=1126, type=Residential, sale_data=Wed May 21 06:00:00 CEST 2008, price=292024.0, lattitude=38.556098, longtitude=-121.490787}
Home{street='10158 CRAWFORD WAY', city='SACRAMENTO', zip='95827', state='CA', beds=4, baths=4, sq_ft=2213, type=Multi-Family, sale_data=Wed May 21 06:00:00 CEST 2008, price=297000.0, lattitude=38.5703, longtitude=-121.315735}
Home{street='7731 MASTERS ST', city='ELK GROVE', zip='95758', state='CA', beds=5, baths=3, sq_ft=2494, type=Residential, sale_data=Wed May 21 06:00:00 CEST 2008, price=297000.0, lattitude=38.442031, longtitude=-121.410873}
Home{street='4925 PERCHERON DR', city='ELK GROVE', zip='95757', state='CA', beds=3, baths=2, sq_ft=1843, type=Residential, sale_data=Wed May 21 06:00:00 CEST 2008, price=298000.0, lattitude=38.40154, longtitude=-121.447649}
Home{street='2010 PROMONTORY POINT LN', city='GOLD RIVER', zip='95670', state='CA', beds=2, baths=2, sq_ft=1520, type=Residential, sale_data=Wed May 21 06:00:00 CEST 2008, price=299000.0, lattitude=38.62869, longtitude=-121.261669}
Home{street='4727 SAVOIE WAY', city='SACRAMENTO', zip='95835', state='CA', beds=5, baths=3, sq_ft=2800, type=Residential, sale_data=Wed May 21 06:00:00 CEST 2008, price=304037.0, lattitude=38.658182, longtitude=-121.549521}
Home{street='8664 MAGNOLIA HILL WAY', city='ELK GROVE', zip='95624', state='CA', beds=4, baths=2, sq_ft=2309, type=Residential, sale_data=Wed May 21 06:00:00 CEST 2008, price=311000.0, lattitude=38.442352, longtitude=-121.389675}
Home{street='9570 HARVEST ROSE WAY', city='SACRAMENTO', zip='95827', state='CA', beds=5, baths=3, sq_ft=2367, type=Residential, sale_data=Wed May 21 06:00:00 CEST 2008, price=315537.0, lattitude=38.555993, longtitude=-121.340352}
Home{street='4359 CREGAN CT', city='RANCHO CORDOVA', zip='95742', state='CA', beds=5, baths=4, sq_ft=3516, type=Residential, sale_data=Wed May 21 06:00:00 CEST 2008, price=320000.0, lattitude=38.545128, longtitude=-121.224922}
Home{street='5337 DUSTY ROSE WAY', city='RANCHO CORDOVA', zip='95742', state='CA', beds=0, baths=0, sq_ft=0, type=Residential, sale_data=Wed May 21 06:00:00 CEST 2008, price=320000.0, lattitude=38.528575, longtitude=-121.2286}
Home{street='8929 SUTTERS GOLD DR', city='SACRAMENTO', zip='95826', state='CA', beds=4, baths=3, sq_ft=1914, type=Residential, sale_data=Wed May 21 06:00:00 CEST 2008, price=328360.0, lattitude=38.550848, longtitude=-121.370224}
Home{street='8025 PEERLESS AVE', city='ORANGEVALE', zip='95662', state='CA', beds=2, baths=1, sq_ft=1690, type=Residential, sale_data=Wed May 21 06:00:00 CEST 2008, price=334150.0, lattitude=38.71147, longtitude=-121.216214}
Home{street='4620 WELERA WAY', city='ELK GROVE', zip='95757', state='CA', beds=3, baths=3, sq_ft=2725, type=Residential, sale_data=Wed May 21 06:00:00 CEST 2008, price=335750.0, lattitude=38.398609, longtitude=-121.450148}
Home{street='9723 TERRAPIN CT', city='ELK GROVE', zip='95757', state='CA', beds=4, baths=3, sq_ft=2354, type=Residential, sale_data=Wed May 21 06:00:00 CEST 2008, price=335750.0, lattitude=38.403492, longtitude=-121.430224}
Home{street='2115 SMOKESTACK WAY', city='SACRAMENTO', zip='95833', state='CA', beds=0, baths=0, sq_ft=0, type=Residential, sale_data=Wed May 21 06:00:00 CEST 2008, price=339500.0, lattitude=38.602416, longtitude=-121.542965}
Home{street='100 REBECCA WAY', city='FOLSOM', zip='95630', state='CA', beds=3, baths=2, sq_ft=2185, type=Residential, sale_data=Wed May 21 06:00:00 CEST 2008, price=344250.0, lattitude=38.68479, longtitude=-121.149199}
Home{street='9488 OAK VILLAGE WAY', city='ELK GROVE', zip='95758', state='CA', beds=4, baths=2, sq_ft=1801, type=Residential, sale_data=Wed May 21 06:00:00 CEST 2008, price=346210.0, lattitude=38.41333, longtitude=-121.404999}
Home{street='8495 DARTFORD DR', city='SACRAMENTO', zip='95823', state='CA', beds=3, baths=3, sq_ft=1961, type=Residential, sale_data=Wed May 21 06:00:00 CEST 2008, price=347029.0, lattitude=38.448507, longtitude=-121.421346}
Home{street='6708 PONTA DO SOL WAY', city='ELK GROVE', zip='95757', state='CA', beds=4, baths=2, sq_ft=3134, type=Residential, sale_data=Wed May 21 06:00:00 CEST 2008, price=347650.0, lattitude=38.380635, longtitude=-121.425538}
Home{street='4143 SEA MEADOW WAY', city='SACRAMENTO', zip='95823', state='CA', beds=4, baths=3, sq_ft=1915, type=Residential, sale_data=Wed May 21 06:00:00 CEST 2008, price=351300.0, lattitude=38.46534, longtitude=-121.457519}
Home{street='3020 RICHARDSON CIR', city='EL DORADO HILLS', zip='95762', state='CA', beds=3, baths=2, sq_ft=0, type=Residential, sale_data=Wed May 21 06:00:00 CEST 2008, price=352000.0, lattitude=38.691299, longtitude=-121.081752}
Home{street='8082 LINDA ISLE LN', city='SACRAMENTO', zip='95831', state='CA', beds=0, baths=0, sq_ft=0, type=Residential, sale_data=Wed May 21 06:00:00 CEST 2008, price=370000.0, lattitude=38.4772, longtitude=-121.5215}
Home{street='15300 MURIETA SOUTH PKWY', city='RANCHO MURIETA', zip='95683', state='CA', beds=4, baths=3, sq_ft=2734, type=Residential, sale_data=Wed May 21 06:00:00 CEST 2008, price=370500.0, lattitude=38.4874, longtitude=-121.075129}
Home{street='11215 SHARRMONT CT', city='WILTON', zip='95693', state='CA', beds=3, baths=2, sq_ft=2110, type=Residential, sale_data=Wed May 21 06:00:00 CEST 2008, price=372000.0, lattitude=38.35062, longtitude=-121.228349}
Home{street='7105 DANBERG WAY', city='ELK GROVE', zip='95757', state='CA', beds=5, baths=3, sq_ft=3164, type=Residential, sale_data=Wed May 21 06:00:00 CEST 2008, price=375000.0, lattitude=38.4019, longtitude=-121.420388}
Home{street='5579 JERRY LITELL WAY', city='SACRAMENTO', zip='95835', state='CA', beds=5, baths=3, sq_ft=3599, type=Residential, sale_data=Wed May 21 06:00:00 CEST 2008, price=381300.0, lattitude=38.677126, longtitude=-121.500519}
Home{street='1050 FOXHALL WAY', city='SACRAMENTO', zip='95831', state='CA', beds=4, baths=2, sq_ft=2054, type=Residential, sale_data=Wed May 21 06:00:00 CEST 2008, price=381942.0, lattitude=38.509819, longtitude=-121.519661}
Home{street='7837 ABBINGTON WAY', city='ANTELOPE', zip='95843', state='CA', beds=4, baths=2, sq_ft=1830, type=Residential, sale_data=Wed May 21 06:00:00 CEST 2008, price=387731.0, lattitude=38.709873, longtitude=-121.339472}
Home{street='1300 F ST', city='SACRAMENTO', zip='95814', state='CA', beds=3, baths=3, sq_ft=1627, type=Residential, sale_data=Wed May 21 06:00:00 CEST 2008, price=391000.0, lattitude=38.58355, longtitude=-121.487289}
Home{street='6801 RAWLEY WAY', city='ELK GROVE', zip='95757', state='CA', beds=4, baths=3, sq_ft=3440, type=Residential, sale_data=Wed May 21 06:00:00 CEST 2008, price=394470.0, lattitude=38.408351, longtitude=-121.423925}
Home{street='1693 SHELTER COVE DR', city='GREENWOOD', zip='95635', state='CA', beds=3, baths=2, sq_ft=2846, type=Residential, sale_data=Wed May 21 06:00:00 CEST 2008, price=395000.0, lattitude=38.945357, longtitude=-120.908822}
Home{street='9361 WADDELL LN', city='ELK GROVE', zip='95624', state='CA', beds=4, baths=3, sq_ft=2359, type=Residential, sale_data=Wed May 21 06:00:00 CEST 2008, price=400186.0, lattitude=38.450829, longtitude=-121.349928}
Home{street='10 SEA FOAM CT', city='SACRAMENTO', zip='95831', state='CA', beds=3, baths=3, sq_ft=2052, type=Residential, sale_data=Wed May 21 06:00:00 CEST 2008, price=415000.0, lattitude=38.487885, longtitude=-121.545947}
Home{street='6945 RIO TEJO WAY', city='ELK GROVE', zip='95757', state='CA', beds=5, baths=3, sq_ft=3433, type=Residential, sale_data=Wed May 21 06:00:00 CEST 2008, price=425000.0, lattitude=38.385638, longtitude=-121.422616}
Home{street='4186 TULIP PARK WAY', city='RANCHO CORDOVA', zip='95742', state='CA', beds=5, baths=3, sq_ft=3615, type=Residential, sale_data=Wed May 21 06:00:00 CEST 2008, price=430000.0, lattitude=38.550617, longtitude=-121.23526}
Home{street='9278 DAIRY CT', city='ELK GROVE', zip='95624', state='CA', beds=0, baths=0, sq_ft=0, type=Residential, sale_data=Wed May 21 06:00:00 CEST 2008, price=445000.0, lattitude=38.420338, longtitude=-121.363757}
Home{street='207 ORANGE BLOSSOM CIR Unit C', city='FOLSOM', zip='95630', state='CA', beds=5, baths=3, sq_ft=2687, type=Residential, sale_data=Wed May 21 06:00:00 CEST 2008, price=460000.0, lattitude=38.646273, longtitude=-121.175322}
Home{street='6507 RIO DE ONAR WAY', city='ELK GROVE', zip='95757', state='CA', beds=4, baths=3, sq_ft=2724, type=Residential, sale_data=Wed May 21 06:00:00 CEST 2008, price=461000.0, lattitude=38.38253, longtitude=-121.428007}
Home{street='7004 RAWLEY WAY', city='ELK GROVE', zip='95757', state='CA', beds=4, baths=3, sq_ft=3440, type=Residential, sale_data=Wed May 21 06:00:00 CEST 2008, price=489332.0, lattitude=38.406421, longtitude=-121.422081}
Home{street='6503 RIO DE ONAR WAY', city='ELK GROVE', zip='95757', state='CA', beds=5, baths=4, sq_ft=3508, type=Residential, sale_data=Wed May 21 06:00:00 CEST 2008, price=510000.0, lattitude=38.38253, longtitude=-121.428038}
Home{street='2217 APPALOOSA CT', city='FOLSOM', zip='95630', state='CA', beds=4, baths=2, sq_ft=2462, type=Residential, sale_data=Wed May 21 06:00:00 CEST 2008, price=539000.0, lattitude=38.655167, longtitude=-121.090178}
Home{street='868 HILDEBRAND CIR', city='FOLSOM', zip='95630', state='CA', beds=0, baths=0, sq_ft=0, type=Residential, sale_data=Wed May 21 06:00:00 CEST 2008, price=585000.0, lattitude=38.670947, longtitude=-121.097727}
Home{street='6030 PALERMO WAY', city='EL DORADO HILLS', zip='95762', state='CA', beds=4, baths=3, sq_ft=0, type=Residential, sale_data=Wed May 21 06:00:00 CEST 2008, price=600000.0, lattitude=38.672761, longtitude=-121.050378}
Home{street='4070 REDONDO DR', city='EL DORADO HILLS', zip='95762', state='CA', beds=4, baths=3, sq_ft=0, type=Residential, sale_data=Wed May 21 06:00:00 CEST 2008, price=606238.0, lattitude=38.666807, longtitude=-121.06483}
Home{street='4004 CRESTA WAY', city='SACRAMENTO', zip='95864', state='CA', beds=3, baths=3, sq_ft=2325, type=Residential, sale_data=Wed May 21 06:00:00 CEST 2008, price=660000.0, lattitude=38.591618, longtitude=-121.370626}
Home{street='315 JUMEL CT', city='EL DORADO HILLS', zip='95762', state='CA', beds=6, baths=5, sq_ft=0, type=Residential, sale_data=Wed May 21 06:00:00 CEST 2008, price=830000.0, lattitude=38.669931, longtitude=-121.05958}
Home{street='2778 KAWEAH CT', city='CAMERON PARK', zip='95682', state='CA', beds=3, baths=1, sq_ft=0, type=Residential, sale_data=Tue May 20 06:00:00 CEST 2008, price=201000.0, lattitude=38.694052, longtitude=-120.995589}
Home{street='1636 ALLENWOOD CIR', city='LINCOLN', zip='95648', state='CA', beds=4, baths=2, sq_ft=0, type=Residential, sale_data=Tue May 20 06:00:00 CEST 2008, price=202500.0, lattitude=38.879192, longtitude=-121.309477}
Home{street='8151 QUAIL RIDGE CT', city='SACRAMENTO', zip='95828', state='CA', beds=3, baths=2, sq_ft=1289, type=Residential, sale_data=Tue May 20 06:00:00 CEST 2008, price=205000.0, lattitude=38.461296, longtitude=-121.390858}
Home{street='4899 WIND CREEK DR', city='SACRAMENTO', zip='95838', state='CA', beds=4, baths=2, sq_ft=1799, type=Residential, sale_data=Tue May 20 06:00:00 CEST 2008, price=205000.0, lattitude=38.655887, longtitude=-121.446119}
Home{street='2370 BIG CANYON CREEK RD', city='PLACERVILLE', zip='95667', state='CA', beds=3, baths=2, sq_ft=0, type=Residential, sale_data=Tue May 20 06:00:00 CEST 2008, price=205000.0, lattitude=38.74458, longtitude=-120.794254}
Home{street='6049 HAMBURG WAY', city='SACRAMENTO', zip='95823', state='CA', beds=4, baths=3, sq_ft=1953, type=Residential, sale_data=Tue May 20 06:00:00 CEST 2008, price=205000.0, lattitude=38.443253, longtitude=-121.431992}
Home{street='4232 71ST ST', city='SACRAMENTO', zip='95820', state='CA', beds=2, baths=1, sq_ft=723, type=Residential, sale_data=Tue May 20 06:00:00 CEST 2008, price=207000.0, lattitude=38.536741, longtitude=-121.42115}
Home{street='3361 BOW MAR CT', city='CAMERON PARK', zip='95682', state='CA', beds=2, baths=2, sq_ft=0, type=Residential, sale_data=Tue May 20 06:00:00 CEST 2008, price=210000.0, lattitude=38.69437, longtitude=-120.996602}
Home{street='1889 COLD SPRINGS RD', city='PLACERVILLE', zip='95667', state='CA', beds=2, baths=1, sq_ft=948, type=Residential, sale_data=Tue May 20 06:00:00 CEST 2008, price=211500.0, lattitude=38.739774, longtitude=-120.860243}
Home{street='5805 HIMALAYA WAY', city='CITRUS HEIGHTS', zip='95621', state='CA', beds=4, baths=2, sq_ft=1578, type=Residential, sale_data=Tue May 20 06:00:00 CEST 2008, price=215000.0, lattitude=38.696489, longtitude=-121.328555}
Home{street='7944 SYLVAN OAK WAY', city='CITRUS HEIGHTS', zip='95610', state='CA', beds=3, baths=2, sq_ft=1317, type=Residential, sale_data=Tue May 20 06:00:00 CEST 2008, price=215000.0, lattitude=38.710388, longtitude=-121.261096}
Home{street='3139 SPOONWOOD WAY Unit 1', city='SACRAMENTO', zip='95833', state='CA', beds=0, baths=0, sq_ft=0, type=Residential, sale_data=Tue May 20 06:00:00 CEST 2008, price=215500.0, lattitude=38.626582, longtitude=-121.52151}
Home{street='6217 LEOLA WAY', city='SACRAMENTO', zip='95824', state='CA', beds=3, baths=1, sq_ft=1360, type=Residential, sale_data=Tue May 20 06:00:00 CEST 2008, price=222381.0, lattitude=38.513066, longtitude=-121.451909}
Home{street='2340 HURLEY WAY', city='SACRAMENTO', zip='95825', state='CA', beds=0, baths=0, sq_ft=0, type=Condo, sale_data=Tue May 20 06:00:00 CEST 2008, price=225000.0, lattitude=38.588816, longtitude=-121.408549}
Home{street='3035 BRUNNET LN', city='SACRAMENTO', zip='95833', state='CA', beds=3, baths=2, sq_ft=1522, type=Residential, sale_data=Tue May 20 06:00:00 CEST 2008, price=225000.0, lattitude=38.624762, longtitude=-121.522775}
Home{street='3025 EL PRADO WAY', city='SACRAMENTO', zip='95825', state='CA', beds=4, baths=2, sq_ft=1751, type=Residential, sale_data=Tue May 20 06:00:00 CEST 2008, price=225000.0, lattitude=38.606603, longtitude=-121.394147}
Home{street='9387 GRANITE FALLS CT', city='ELK GROVE', zip='95624', state='CA', beds=3, baths=2, sq_ft=1465, type=Residential, sale_data=Tue May 20 06:00:00 CEST 2008, price=225000.0, lattitude=38.419214, longtitude=-121.348533}
Home{street='9257 CALDERA WAY', city='SACRAMENTO', zip='95826', state='CA', beds=4, baths=2, sq_ft=1605, type=Residential, sale_data=Tue May 20 06:00:00 CEST 2008, price=228000.0, lattitude=38.55821, longtitude=-121.355022}
Home{street='441 ARLINGDALE CIR', city='RIO LINDA', zip='95673', state='CA', beds=4, baths=2, sq_ft=1475, type=Residential, sale_data=Tue May 20 06:00:00 CEST 2008, price=229665.0, lattitude=38.702893, longtitude=-121.454949}
Home{street='2284 LOS ROBLES RD', city='MEADOW VISTA', zip='95722', state='CA', beds=3, baths=1, sq_ft=1216, type=Residential, sale_data=Tue May 20 06:00:00 CEST 2008, price=230000.0, lattitude=39.008159, longtitude=-121.03623}
Home{street='8164 CHENIN BLANC LN', city='FAIR OAKS', zip='95628', state='CA', beds=2, baths=2, sq_ft=1315, type=Residential, sale_data=Tue May 20 06:00:00 CEST 2008, price=230000.0, lattitude=38.665644, longtitude=-121.259969}
Home{street='4620 CHAMBERLIN CIR', city='ELK GROVE', zip='95757', state='CA', beds=3, baths=2, sq_ft=1567, type=Residential, sale_data=Tue May 20 06:00:00 CEST 2008, price=230000.0, lattitude=38.390557, longtitude=-121.449805}
Home{street='5340 BIRK WAY', city='SACRAMENTO', zip='95835', state='CA', beds=3, baths=2, sq_ft=1776, type=Residential, sale_data=Tue May 20 06:00:00 CEST 2008, price=234000.0, lattitude=38.672495, longtitude=-121.515251}
Home{street='51 ANJOU CIR', city='SACRAMENTO', zip='95835', state='CA', beds=3, baths=2, sq_ft=2187, type=Residential, sale_data=Tue May 20 06:00:00 CEST 2008, price=235000.0, lattitude=38.661658, longtitude=-121.540633}
Home{street='2125 22ND AVE', city='SACRAMENTO', zip='95822', state='CA', beds=3, baths=1, sq_ft=1291, type=Residential, sale_data=Tue May 20 06:00:00 CEST 2008, price=236250.0, lattitude=38.534596, longtitude=-121.493121}
Home{street='611 BLOSSOM ROCK LN', city='FOLSOM', zip='95630', state='CA', beds=0, baths=0, sq_ft=0, type=Condo, sale_data=Tue May 20 06:00:00 CEST 2008, price=240000.0, lattitude=38.6457, longtitude=-121.1197}
Home{street='8830 ADUR RD', city='ELK GROVE', zip='95624', state='CA', beds=0, baths=0, sq_ft=0, type=Residential, sale_data=Tue May 20 06:00:00 CEST 2008, price=242000.0, lattitude=38.43742, longtitude=-121.372876}
Home{street='7344 BUTTERBALL WAY', city='SACRAMENTO', zip='95842', state='CA', beds=3, baths=2, sq_ft=1503, type=Residential, sale_data=Tue May 20 06:00:00 CEST 2008, price=245000.0, lattitude=38.699489, longtitude=-121.361828}
Home{street='8219 GWINHURST CIR', city='SACRAMENTO', zip='95828', state='CA', beds=4, baths=3, sq_ft=2491, type=Residential, sale_data=Tue May 20 06:00:00 CEST 2008, price=245000.0, lattitude=38.459711, longtitude=-121.384283}
Home{street='3240 S ST', city='SACRAMENTO', zip='95816', state='CA', beds=2, baths=1, sq_ft=1269, type=Residential, sale_data=Tue May 20 06:00:00 CEST 2008, price=245000.0, lattitude=38.562296, longtitude=-121.467489}
Home{street='221 PICASSO CIR', city='SACRAMENTO', zip='95835', state='CA', beds=0, baths=0, sq_ft=0, type=Residential, sale_data=Tue May 20 06:00:00 CEST 2008, price=250000.0, lattitude=38.676658, longtitude=-121.528128}
Home{street='5706 GREENACRES WAY', city='ORANGEVALE', zip='95662', state='CA', beds=3, baths=2, sq_ft=1176, type=Residential, sale_data=Tue May 20 06:00:00 CEST 2008, price=250000.0, lattitude=38.669882, longtitude=-121.213533}
Home{street='6900 LONICERA DR', city='ORANGEVALE', zip='95662', state='CA', beds=4, baths=2, sq_ft=1456, type=Residential, sale_data=Tue May 20 06:00:00 CEST 2008, price=250000.0, lattitude=38.692199, longtitude=-121.250975}
Home{street='419 DAWNRIDGE RD', city='ROSEVILLE', zip='95678', state='CA', beds=3, baths=2, sq_ft=1498, type=Residential, sale_data=Tue May 20 06:00:00 CEST 2008, price=250000.0, lattitude=38.725283, longtitude=-121.297953}
Home{street='5312 MARBURY WAY', city='ANTELOPE', zip='95843', state='CA', beds=3, baths=2, sq_ft=1574, type=Residential, sale_data=Tue May 20 06:00:00 CEST 2008, price=255000.0, lattitude=38.710221, longtitude=-121.341651}
Home{street='6344 BONHAM CIR', city='CITRUS HEIGHTS', zip='95610', state='CA', beds=5, baths=4, sq_ft=2085, type=Multi-Family, sale_data=Tue May 20 06:00:00 CEST 2008, price=256054.0, lattitude=38.682358, longtitude=-121.272876}
Home{street='8207 YORKTON WAY', city='SACRAMENTO', zip='95829', state='CA', beds=3, baths=2, sq_ft=2170, type=Residential, sale_data=Tue May 20 06:00:00 CEST 2008, price=257729.0, lattitude=38.45967, longtitude=-121.360461}
Home{street='7922 MANSELL WAY', city='ELK GROVE', zip='95758', state='CA', beds=4, baths=2, sq_ft=1595, type=Residential, sale_data=Tue May 20 06:00:00 CEST 2008, price=260000.0, lattitude=38.409634, longtitude=-121.410787}
Home{street='5712 MELBURY CIR', city='ANTELOPE', zip='95843', state='CA', beds=3, baths=2, sq_ft=1567, type=Residential, sale_data=Tue May 20 06:00:00 CEST 2008, price=261000.0, lattitude=38.705849, longtitude=-121.334701}
Home{street='632 NEWBRIDGE LN', city='LINCOLN', zip='95648', state='CA', beds=4, baths=2, sq_ft=0, type=Residential, sale_data=Tue May 20 06:00:00 CEST 2008, price=261800.0, lattitude=38.879084, longtitude=-121.298586}
Home{street='1570 GLIDDEN AVE', city='SACRAMENTO', zip='95822', state='CA', beds=4, baths=2, sq_ft=1253, type=Residential, sale_data=Tue May 20 06:00:00 CEST 2008, price=264469.0, lattitude=38.482704, longtitude=-121.500433}
Home{street='8108 FILIFERA WAY', city='ANTELOPE', zip='95843', state='CA', beds=4, baths=3, sq_ft=1768, type=Residential, sale_data=Tue May 20 06:00:00 CEST 2008, price=265000.0, lattitude=38.717042, longtitude=-121.35468}
Home{street='230 BANKSIDE WAY', city='SACRAMENTO', zip='95835', state='CA', beds=0, baths=0, sq_ft=0, type=Residential, sale_data=Tue May 20 06:00:00 CEST 2008, price=270000.0, lattitude=38.676937, longtitude=-121.529244}
Home{street='5342 CALABRIA WAY', city='SACRAMENTO', zip='95835', state='CA', beds=4, baths=3, sq_ft=2030, type=Residential, sale_data=Tue May 20 06:00:00 CEST 2008, price=270000.0, lattitude=38.671807, longtitude=-121.498274}
Home{street='47 NAPONEE CT', city='SACRAMENTO', zip='95835', state='CA', beds=3, baths=2, sq_ft=1531, type=Residential, sale_data=Tue May 20 06:00:00 CEST 2008, price=270000.0, lattitude=38.665704, longtitude=-121.529096}
Home{street='4236 ADRIATIC SEA WAY', city='SACRAMENTO', zip='95834', state='CA', beds=0, baths=0, sq_ft=0, type=Residential, sale_data=Tue May 20 06:00:00 CEST 2008, price=270000.0, lattitude=38.647961, longtitude=-121.543162}
Home{street='8864 REMBRANT CT', city='ELK GROVE', zip='95624', state='CA', beds=4, baths=3, sq_ft=1653, type=Residential, sale_data=Tue May 20 06:00:00 CEST 2008, price=275000.0, lattitude=38.435288, longtitude=-121.375703}
Home{street='9455 SEA CLIFF WAY', city='ELK GROVE', zip='95758', state='CA', beds=4, baths=2, sq_ft=2056, type=Residential, sale_data=Tue May 20 06:00:00 CEST 2008, price=275000.0, lattitude=38.411522, longtitude=-121.481406}
Home{street='9720 LITTLE HARBOR WAY', city='ELK GROVE', zip='95624', state='CA', beds=4, baths=3, sq_ft=2494, type=Residential, sale_data=Tue May 20 06:00:00 CEST 2008, price=280000.0, lattitude=38.404934, longtitude=-121.352405}
Home{street='8806 PHOENIX AVE', city='FAIR OAKS', zip='95628', state='CA', beds=3, baths=2, sq_ft=1450, type=Residential, sale_data=Tue May 20 06:00:00 CEST 2008, price=286013.0, lattitude=38.660322, longtitude=-121.230101}
Home{street='3578 LOGGERHEAD WAY', city='SACRAMENTO', zip='95834', state='CA', beds=4, baths=2, sq_ft=2169, type=Residential, sale_data=Tue May 20 06:00:00 CEST 2008, price=292000.0, lattitude=38.633028, longtitude=-121.526755}
Home{street='1416 LOCKHART WAY', city='ROSEVILLE', zip='95747', state='CA', beds=3, baths=2, sq_ft=1440, type=Residential, sale_data=Tue May 20 06:00:00 CEST 2008, price=292000.0, lattitude=38.752399, longtitude=-121.330328}
Home{street='5413 BUENA VENTURA WAY', city='FAIR OAKS', zip='95628', state='CA', beds=3, baths=2, sq_ft=1527, type=Residential, sale_data=Tue May 20 06:00:00 CEST 2008, price=293993.0, lattitude=38.664552, longtitude=-121.255937}
Home{street='37 WHITE BIRCH CT', city='ROSEVILLE', zip='95678', state='CA', beds=3, baths=2, sq_ft=1401, type=Residential, sale_data=Tue May 20 06:00:00 CEST 2008, price=294000.0, lattitude=38.776327, longtitude=-121.284514}
Home{street='405 MARLIN SPIKE WAY', city='SACRAMENTO', zip='95838', state='CA', beds=3, baths=2, sq_ft=1411, type=Residential, sale_data=Tue May 20 06:00:00 CEST 2008, price=296769.0, lattitude=38.65783, longtitude=-121.456842}
Home{street='1102 CHESLEY LN', city='LINCOLN', zip='95648', state='CA', beds=4, baths=4, sq_ft=0, type=Residential, sale_data=Tue May 20 06:00:00 CEST 2008, price=297500.0, lattitude=38.864864, longtitude=-121.313988}
Home{street='11281 STANFORD COURT LN Unit 604', city='GOLD RIVER', zip='95670', state='CA', beds=0, baths=0, sq_ft=0, type=Condo, sale_data=Tue May 20 06:00:00 CEST 2008, price=300000.0, lattitude=38.625289, longtitude=-121.260286}
Home{street='7320 6TH ST', city='RIO LINDA', zip='95673', state='CA', beds=3, baths=1, sq_ft=1284, type=Residential, sale_data=Tue May 20 06:00:00 CEST 2008, price=300000.0, lattitude=38.700553, longtitude=-121.452223}
Home{street='993 MANTON CT', city='GALT', zip='95632', state='CA', beds=4, baths=3, sq_ft=2307, type=Residential, sale_data=Tue May 20 06:00:00 CEST 2008, price=300000.0, lattitude=38.272942, longtitude=-121.289148}
Home{street='4487 PANORAMA DR', city='PLACERVILLE', zip='95667', state='CA', beds=3, baths=2, sq_ft=1329, type=Residential, sale_data=Tue May 20 06:00:00 CEST 2008, price=300000.0, lattitude=38.694559, longtitude=-120.848157}
Home{street='5651 OVERLEAF WAY', city='SACRAMENTO', zip='95835', state='CA', beds=4, baths=2, sq_ft=1910, type=Residential, sale_data=Tue May 20 06:00:00 CEST 2008, price=300500.0, lattitude=38.677454, longtitude=-121.494791}
Home{street='2015 PROMONTORY POINT LN', city='GOLD RIVER', zip='95670', state='CA', beds=3, baths=2, sq_ft=1981, type=Residential, sale_data=Tue May 20 06:00:00 CEST 2008, price=305000.0, lattitude=38.628732, longtitude=-121.261149}
Home{street='3224 PARKHAM DR', city='ROSEVILLE', zip='95747', state='CA', beds=0, baths=0, sq_ft=0, type=Residential, sale_data=Tue May 20 06:00:00 CEST 2008, price=306500.0, lattitude=38.772771, longtitude=-121.364877}
Home{street='15 VANESSA PL', city='SACRAMENTO', zip='95835', state='CA', beds=0, baths=0, sq_ft=0, type=Residential, sale_data=Tue May 20 06:00:00 CEST 2008, price=312500.0, lattitude=38.668692, longtitude=-121.54549}
Home{street='1312 RENISON LN', city='LINCOLN', zip='95648', state='CA', beds=5, baths=3, sq_ft=0, type=Residential, sale_data=Tue May 20 06:00:00 CEST 2008, price=315000.0, lattitude=38.866409, longtitude=-121.308485}
Home{street='8 RIVER RAFT CT', city='SACRAMENTO', zip='95823', state='CA', beds=4, baths=2, sq_ft=2205, type=Residential, sale_data=Tue May 20 06:00:00 CEST 2008, price=319789.0, lattitude=38.447353, longtitude=-121.434969}
Home{street='2251 LAMPLIGHT LN', city='LINCOLN', zip='95648', state='CA', beds=2, baths=2, sq_ft=1449, type=Residential, sale_data=Tue May 20 06:00:00 CEST 2008, price=330000.0, lattitude=38.849924, longtitude=-121.275729}
Home{street='106 FARHAM DR', city='FOLSOM', zip='95630', state='CA', beds=3, baths=2, sq_ft=1258, type=Residential, sale_data=Tue May 20 06:00:00 CEST 2008, price=330000.0, lattitude=38.667834, longtitude=-121.168578}
Home{street='5405 NECTAR CIR', city='ELK GROVE', zip='95757', state='CA', beds=3, baths=2, sq_ft=2575, type=Residential, sale_data=Tue May 20 06:00:00 CEST 2008, price=331000.0, lattitude=38.387014, longtitude=-121.440967}
Home{street='5411 10TH AVE', city='SACRAMENTO', zip='95820', state='CA', beds=2, baths=1, sq_ft=539, type=Residential, sale_data=Tue May 20 06:00:00 CEST 2008, price=334000.0, lattitude=38.542727, longtitude=-121.442449}
Home{street='3512 RAINSONG CIR', city='RANCHO CORDOVA', zip='95670', state='CA', beds=4, baths=3, sq_ft=2208, type=Residential, sale_data=Tue May 20 06:00:00 CEST 2008, price=336000.0, lattitude=38.573488, longtitude=-121.282809}
Home{street='1106 55TH ST', city='SACRAMENTO', zip='95819', state='CA', beds=3, baths=1, sq_ft=1108, type=Residential, sale_data=Tue May 20 06:00:00 CEST 2008, price=339000.0, lattitude=38.563805, longtitude=-121.436395}
Home{street='411 ILLSLEY WAY', city='FOLSOM', zip='95630', state='CA', beds=4, baths=2, sq_ft=1595, type=Residential, sale_data=Tue May 20 06:00:00 CEST 2008, price=339000.0, lattitude=38.652002, longtitude=-121.129504}
Home{street='796 BUTTERCUP CIR', city='GALT', zip='95632', state='CA', beds=4, baths=2, sq_ft=2159, type=Residential, sale_data=Tue May 20 06:00:00 CEST 2008, price=345000.0, lattitude=38.279581, longtitude=-121.300828}
Home{street='1230 SANDRA CIR', city='PLACERVILLE', zip='95667', state='CA', beds=4, baths=3, sq_ft=2295, type=Residential, sale_data=Tue May 20 06:00:00 CEST 2008, price=350000.0, lattitude=38.738141, longtitude=-120.784145}
Home{street='318 ANACAPA DR', city='ROSEVILLE', zip='95678', state='CA', beds=3, baths=2, sq_ft=1838, type=Residential, sale_data=Tue May 20 06:00:00 CEST 2008, price=356000.0, lattitude=38.782094, longtitude=-121.297133}
Home{street='3975 SHINING STAR DR', city='SACRAMENTO', zip='95823', state='CA', beds=4, baths=2, sq_ft=1900, type=Residential, sale_data=Tue May 20 06:00:00 CEST 2008, price=361745.0, lattitude=38.487409, longtitude=-121.461413}
Home{street='1620 BASLER ST', city='SACRAMENTO', zip='95811', state='CA', beds=4, baths=2, sq_ft=1718, type=Residential, sale_data=Tue May 20 06:00:00 CEST 2008, price=361948.0, lattitude=38.591822, longtitude=-121.478644}
Home{street='9688 NATURE TRAIL WAY', city='ELK GROVE', zip='95757', state='CA', beds=5, baths=3, sq_ft=3389, type=Residential, sale_data=Tue May 20 06:00:00 CEST 2008, price=370000.0, lattitude=38.405224, longtitude=-121.479275}
Home{street='5924 TANUS CIR', city='ROCKLIN', zip='95677', state='CA', beds=4, baths=2, sq_ft=0, type=Residential, sale_data=Tue May 20 06:00:00 CEST 2008, price=380000.0, lattitude=38.778691, longtitude=-121.204292}
Home{street='9629 CEDAR OAK WAY', city='ELK GROVE', zip='95757', state='CA', beds=5, baths=4, sq_ft=3260, type=Residential, sale_data=Tue May 20 06:00:00 CEST 2008, price=385000.0, lattitude=38.405527, longtitude=-121.431746}
Home{street='3429 FERNBROOK CT', city='CAMERON PARK', zip='95682', state='CA', beds=3, baths=2, sq_ft=2016, type=Residential, sale_data=Tue May 20 06:00:00 CEST 2008, price=399000.0, lattitude=38.664225, longtitude=-121.007173}
Home{street='2121 HANNAH WAY', city='ROCKLIN', zip='95765', state='CA', beds=4, baths=2, sq_ft=2607, type=Residential, sale_data=Tue May 20 06:00:00 CEST 2008, price=402000.0, lattitude=38.805749, longtitude=-121.280931}
Home{street='10104 ANNIE ST', city='ELK GROVE', zip='95757', state='CA', beds=4, baths=3, sq_ft=2724, type=Residential, sale_data=Tue May 20 06:00:00 CEST 2008, price=406026.0, lattitude=38.390465, longtitude=-121.443479}
Home{street='1092 MAUGHAM CT', city='GALT', zip='95632', state='CA', beds=5, baths=4, sq_ft=3746, type=Residential, sale_data=Tue May 20 06:00:00 CEST 2008, price=420000.0, lattitude=38.271646, longtitude=-121.286848}
Home{street='5404 ALMOND FALLS WAY', city='RANCHO CORDOVA', zip='95742', state='CA', beds=0, baths=0, sq_ft=0, type=Residential, sale_data=Tue May 20 06:00:00 CEST 2008, price=425000.0, lattitude=38.527502, longtitude=-121.233492}
Home{street='6306 CONEJO', city='RANCHO MURIETA', zip='95683', state='CA', beds=4, baths=2, sq_ft=3192, type=Residential, sale_data=Tue May 20 06:00:00 CEST 2008, price=425000.0, lattitude=38.512602, longtitude=-121.087233}
Home{street='14 CASA VATONI PL', city='SACRAMENTO', zip='95834', state='CA', beds=0, baths=0, sq_ft=0, type=Residential, sale_data=Tue May 20 06:00:00 CEST 2008, price=433500.0, lattitude=38.650221, longtitude=-121.551704}
Home{street='1456 EAGLESFIELD LN', city='LINCOLN', zip='95648', state='CA', beds=4, baths=3, sq_ft=0, type=Residential, sale_data=Tue May 20 06:00:00 CEST 2008, price=436746.0, lattitude=38.857635, longtitude=-121.311375}
Home{street='4100 BOTHWELL CIR', city='EL DORADO HILLS', zip='95762', state='CA', beds=5, baths=3, sq_ft=0, type=Residential, sale_data=Tue May 20 06:00:00 CEST 2008, price=438700.0, lattitude=38.679136, longtitude=-121.034329}
Home{street='427 21ST ST', city='SACRAMENTO', zip='95811', state='CA', beds=2, baths=1, sq_ft=1247, type=Residential, sale_data=Tue May 20 06:00:00 CEST 2008, price=445000.0, lattitude=38.582604, longtitude=-121.47576}
Home{street='1044 GALSTON DR', city='FOLSOM', zip='95630', state='CA', beds=4, baths=2, sq_ft=2581, type=Residential, sale_data=Tue May 20 06:00:00 CEST 2008, price=450000.0, lattitude=38.676306, longtitude=-121.09954}
Home{street='4440 SYCAMORE AVE', city='SACRAMENTO', zip='95841', state='CA', beds=3, baths=1, sq_ft=2068, type=Residential, sale_data=Tue May 20 06:00:00 CEST 2008, price=460000.0, lattitude=38.646374, longtitude=-121.353658}
Home{street='1032 SOUZA DR', city='EL DORADO HILLS', zip='95762', state='CA', beds=3, baths=2, sq_ft=0, type=Residential, sale_data=Tue May 20 06:00:00 CEST 2008, price=460000.0, lattitude=38.668239, longtitude=-121.064437}
Home{street='9760 LAZULITE CT', city='ELK GROVE', zip='95624', state='CA', beds=4, baths=3, sq_ft=3992, type=Residential, sale_data=Tue May 20 06:00:00 CEST 2008, price=460000.0, lattitude=38.403609, longtitude=-121.335541}
Home{street='241 LANFRANCO CIR', city='SACRAMENTO', zip='95835', state='CA', beds=4, baths=4, sq_ft=3397, type=Residential, sale_data=Tue May 20 06:00:00 CEST 2008, price=465000.0, lattitude=38.665696, longtitude=-121.549437}
Home{street='5559 NORTHBOROUGH DR', city='SACRAMENTO', zip='95835', state='CA', beds=5, baths=3, sq_ft=3881, type=Residential, sale_data=Tue May 20 06:00:00 CEST 2008, price=471750.0, lattitude=38.677225, longtitude=-121.519687}
Home{street='2125 BIG SKY DR', city='ROCKLIN', zip='95765', state='CA', beds=5, baths=3, sq_ft=0, type=Residential, sale_data=Tue May 20 06:00:00 CEST 2008, price=480000.0, lattitude=38.801637, longtitude=-121.278798}
Home{street='2109 HAMLET PL', city='CARMICHAEL', zip='95608', state='CA', beds=2, baths=2, sq_ft=1598, type=Residential, sale_data=Tue May 20 06:00:00 CEST 2008, price=484000.0, lattitude=38.602754, longtitude=-121.329326}
Home{street='9970 STATE HIGHWAY 193', city='PLACERVILLE', zip='95667', state='CA', beds=4, baths=3, sq_ft=1929, type=Residential, sale_data=Tue May 20 06:00:00 CEST 2008, price=485000.0, lattitude=38.787877, longtitude=-120.816676}
Home{street='2901 PINTAIL WAY', city='ELK GROVE', zip='95757', state='CA', beds=4, baths=3, sq_ft=3070, type=Residential, sale_data=Tue May 20 06:00:00 CEST 2008, price=495000.0, lattitude=38.398488, longtitude=-121.473424}
Home{street='201 FIRESTONE DR', city='ROSEVILLE', zip='95678', state='CA', beds=0, baths=0, sq_ft=0, type=Residential, sale_data=Tue May 20 06:00:00 CEST 2008, price=500500.0, lattitude=38.770153, longtitude=-121.300039}
Home{street='1740 HIGH ST', city='AUBURN', zip='95603', state='CA', beds=3, baths=3, sq_ft=0, type=Residential, sale_data=Tue May 20 06:00:00 CEST 2008, price=504000.0, lattitude=38.891935, longtitude=-121.08434}
Home{street='2733 DANA LOOP', city='EL DORADO HILLS', zip='95762', state='CA', beds=0, baths=0, sq_ft=0, type=Residential, sale_data=Tue May 20 06:00:00 CEST 2008, price=541000.0, lattitude=38.628459, longtitude=-121.055078}
Home{street='9741 SADDLEBRED CT', city='WILTON', zip='95693', state='CA', beds=0, baths=0, sq_ft=0, type=Residential, sale_data=Tue May 20 06:00:00 CEST 2008, price=560000.0, lattitude=38.408841, longtitude=-121.198039}
Home{street='7756 TIGERWOODS DR', city='SACRAMENTO', zip='95829', state='CA', beds=5, baths=3, sq_ft=3984, type=Residential, sale_data=Tue May 20 06:00:00 CEST 2008, price=572500.0, lattitude=38.47643, longtitude=-121.309243}
Home{street='5709 RIVER OAK WAY', city='CARMICHAEL', zip='95608', state='CA', beds=4, baths=2, sq_ft=2222, type=Residential, sale_data=Tue May 20 06:00:00 CEST 2008, price=582000.0, lattitude=38.602461, longtitude=-121.330979}
Home{street='2981 WRINGER DR', city='ROSEVILLE', zip='95661', state='CA', beds=4, baths=3, sq_ft=3838, type=Residential, sale_data=Tue May 20 06:00:00 CEST 2008, price=613401.0, lattitude=38.735373, longtitude=-121.227072}
Home{street='8616 ROCKPORTE CT', city='ROSEVILLE', zip='95747', state='CA', beds=4, baths=2, sq_ft=0, type=Residential, sale_data=Tue May 20 06:00:00 CEST 2008, price=614000.0, lattitude=38.742118, longtitude=-121.359909}
Home{street='4128 HILL ST', city='FAIR OAKS', zip='95628', state='CA', beds=5, baths=5, sq_ft=2846, type=Residential, sale_data=Tue May 20 06:00:00 CEST 2008, price=680000.0, lattitude=38.64167, longtitude=-121.262099}
Home{street='1409 47TH ST', city='SACRAMENTO', zip='95819', state='CA', beds=5, baths=2, sq_ft=2484, type=Residential, sale_data=Tue May 20 06:00:00 CEST 2008, price=699000.0, lattitude=38.563244, longtitude=-121.446876}
Home{street='3935 EL MONTE DR', city='LOOMIS', zip='95650', state='CA', beds=4, baths=4, sq_ft=1624, type=Residential, sale_data=Tue May 20 06:00:00 CEST 2008, price=839000.0, lattitude=38.813337, longtitude=-121.133348}
Home{street='1 KENNELFORD CIR', city='SACRAMENTO', zip='95823', state='CA', beds=3, baths=2, sq_ft=1144, type=Residential, sale_data=Mon May 19 06:00:00 CEST 2008, price=200345.0, lattitude=38.46452, longtitude=-121.427606}
Home{street='909 SINGINGWOOD RD', city='SACRAMENTO', zip='95864', state='CA', beds=2, baths=1, sq_ft=930, type=Residential, sale_data=Mon May 19 06:00:00 CEST 2008, price=203000.0, lattitude=38.581471, longtitude=-121.38839}
Home{street='6671 FOXWOOD CT', city='SACRAMENTO', zip='95841', state='CA', beds=4, baths=2, sq_ft=1766, type=Residential, sale_data=Mon May 19 06:00:00 CEST 2008, price=207000.0, lattitude=38.687943, longtitude=-121.328883}
Home{street='8165 AYN RAND CT', city='SACRAMENTO', zip='95828', state='CA', beds=4, baths=3, sq_ft=1940, type=Residential, sale_data=Mon May 19 06:00:00 CEST 2008, price=208000.0, lattitude=38.468639, longtitude=-121.403265}
Home{street='9474 VILLAGE TREE DR', city='ELK GROVE', zip='95758', state='CA', beds=4, baths=2, sq_ft=1776, type=Residential, sale_data=Mon May 19 06:00:00 CEST 2008, price=210000.0, lattitude=38.413947, longtitude=-121.408276}
Home{street='7213 CALVIN DR', city='CITRUS HEIGHTS', zip='95621', state='CA', beds=3, baths=1, sq_ft=1258, type=Residential, sale_data=Mon May 19 06:00:00 CEST 2008, price=212000.0, lattitude=38.698154, longtitude=-121.298375}
Home{street='8167 DERBY PARK CT', city='SACRAMENTO', zip='95828', state='CA', beds=4, baths=2, sq_ft=1872, type=Residential, sale_data=Mon May 19 06:00:00 CEST 2008, price=213675.0, lattitude=38.460492, longtitude=-121.373379}
Home{street='6344 LAGUNA MIRAGE LN', city='ELK GROVE', zip='95758', state='CA', beds=2, baths=2, sq_ft=1112, type=Residential, sale_data=Mon May 19 06:00:00 CEST 2008, price=213697.0, lattitude=38.423963, longtitude=-121.428875}
Home{street='2945 RED HAWK WAY', city='SACRAMENTO', zip='95833', state='CA', beds=4, baths=2, sq_ft=1856, type=Residential, sale_data=Mon May 19 06:00:00 CEST 2008, price=215000.0, lattitude=38.619675, longtitude=-121.496903}
Home{street='3228 I ST', city='SACRAMENTO', zip='95816', state='CA', beds=4, baths=3, sq_ft=1939, type=Residential, sale_data=Mon May 19 06:00:00 CEST 2008, price=215000.0, lattitude=38.573844, longtitude=-121.462839}
Home{street='308 ATKINSON ST', city='ROSEVILLE', zip='95678', state='CA', beds=3, baths=1, sq_ft=998, type=Residential, sale_data=Mon May 19 06:00:00 CEST 2008, price=215100.0, lattitude=38.746794, longtitude=-121.29971}
Home{street='624 HOVEY WAY', city='ROSEVILLE', zip='95678', state='CA', beds=3, baths=2, sq_ft=1758, type=Residential, sale_data=Mon May 19 06:00:00 CEST 2008, price=217500.0, lattitude=38.756149, longtitude=-121.306479}
Home{street='110 COPPER LEAF WAY', city='SACRAMENTO', zip='95838', state='CA', beds=3, baths=2, sq_ft=2142, type=Residential, sale_data=Mon May 19 06:00:00 CEST 2008, price=218000.0, lattitude=38.658466, longtitude=-121.460661}
Home{street='7535 ALMA VISTA WAY', city='SACRAMENTO', zip='95831', state='CA', beds=2, baths=1, sq_ft=950, type=Residential, sale_data=Mon May 19 06:00:00 CEST 2008, price=220000.0, lattitude=38.48403, longtitude=-121.507641}
Home{street='7423 WILSALL CT', city='ELK GROVE', zip='95758', state='CA', beds=4, baths=3, sq_ft=1739, type=Residential, sale_data=Mon May 19 06:00:00 CEST 2008, price=221000.0, lattitude=38.417026, longtitude=-121.416821}
Home{street='8629 VIA ALTA WAY', city='ELK GROVE', zip='95624', state='CA', beds=3, baths=2, sq_ft=1516, type=Residential, sale_data=Mon May 19 06:00:00 CEST 2008, price=222900.0, lattitude=38.398245, longtitude=-121.380615}
Home{street='3318 DAVIDSON DR', city='ANTELOPE', zip='95843', state='CA', beds=3, baths=1, sq_ft=988, type=Residential, sale_data=Mon May 19 06:00:00 CEST 2008, price=223139.0, lattitude=38.705753, longtitude=-121.388917}
Home{street='913 COBDEN CT', city='GALT', zip='95632', state='CA', beds=4, baths=2, sq_ft=1555, type=Residential, sale_data=Mon May 19 06:00:00 CEST 2008, price=225500.0, lattitude=38.282001, longtitude=-121.295902}
Home{street='4419 79TH ST', city='SACRAMENTO', zip='95820', state='CA', beds=3, baths=2, sq_ft=1212, type=Residential, sale_data=Mon May 19 06:00:00 CEST 2008, price=228327.0, lattitude=38.534827, longtitude=-121.412545}
Home{street='3012 SPOONWOOD WAY', city='SACRAMENTO', zip='95833', state='CA', beds=4, baths=2, sq_ft=1871, type=Residential, sale_data=Mon May 19 06:00:00 CEST 2008, price=230000.0, lattitude=38.62478, longtitude=-121.523474}
Home{street='8728 CRYSTAL RIVER WAY', city='SACRAMENTO', zip='95828', state='CA', beds=3, baths=2, sq_ft=1302, type=Residential, sale_data=Mon May 19 06:00:00 CEST 2008, price=230000.0, lattitude=38.47547, longtitude=-121.380055}
Home{street='4709 AMBER LN Unit 1', city='SACRAMENTO', zip='95841', state='CA', beds=2, baths=1, sq_ft=756, type=Condo, sale_data=Mon May 19 06:00:00 CEST 2008, price=230522.0, lattitude=38.657789, longtitude=-121.354994}
Home{street='4508 OLD DAIRY DR', city='ANTELOPE', zip='95843', state='CA', beds=4, baths=3, sq_ft=2026, type=Residential, sale_data=Mon May 19 06:00:00 CEST 2008, price=231200.0, lattitude=38.72286, longtitude=-121.358939}
Home{street='312 RIVER ISLE WAY', city='SACRAMENTO', zip='95831', state='CA', beds=3, baths=2, sq_ft=1375, type=Residential, sale_data=Mon May 19 06:00:00 CEST 2008, price=232000.0, lattitude=38.49026, longtitude=-121.550527}
Home{street='301 OLIVADI WAY', city='SACRAMENTO', zip='95834', state='CA', beds=2, baths=2, sq_ft=1250, type=Condo, sale_data=Mon May 19 06:00:00 CEST 2008, price=232500.0, lattitude=38.644406, longtitude=-121.549049}
Home{street='5636 25TH ST', city='SACRAMENTO', zip='95822', state='CA', beds=3, baths=1, sq_ft=1058, type=Residential, sale_data=Mon May 19 06:00:00 CEST 2008, price=233641.0, lattitude=38.523828, longtitude=-121.481139}
Home{street='8721 SPRUCE RIDGE WAY', city='ANTELOPE', zip='95843', state='CA', beds=3, baths=2, sq_ft=1187, type=Residential, sale_data=Mon May 19 06:00:00 CEST 2008, price=234000.0, lattitude=38.727657, longtitude=-121.391028}
Home{street='7461 WINDBRIDGE DR', city='SACRAMENTO', zip='95831', state='CA', beds=2, baths=2, sq_ft=1324, type=Residential, sale_data=Mon May 19 06:00:00 CEST 2008, price=234500.0, lattitude=38.48797, longtitude=-121.530229}
Home{street='8101 LEMON COVE CT', city='SACRAMENTO', zip='95828', state='CA', beds=4, baths=3, sq_ft=1936, type=Residential, sale_data=Mon May 19 06:00:00 CEST 2008, price=235000.0, lattitude=38.462981, longtitude=-121.408288}
Home{street='10949 SCOTSMAN WAY', city='RANCHO CORDOVA', zip='95670', state='CA', beds=5, baths=4, sq_ft=2382, type=Multi-Family, sale_data=Mon May 19 06:00:00 CEST 2008, price=236000.0, lattitude=38.603686, longtitude=-121.277844}
Home{street='617 WILLOW CREEK DR', city='FOLSOM', zip='95630', state='CA', beds=3, baths=2, sq_ft=1427, type=Residential, sale_data=Mon May 19 06:00:00 CEST 2008, price=236073.0, lattitude=38.679626, longtitude=-121.142609}
Home{street='3301 PARK DR Unit 1914', city='SACRAMENTO', zip='95835', state='CA', beds=3, baths=2, sq_ft=1678, type=Condo, sale_data=Mon May 19 06:00:00 CEST 2008, price=238000.0, lattitude=38.665296, longtitude=-121.531993}
Home{street='709 CIMMARON CT', city='GALT', zip='95632', state='CA', beds=4, baths=2, sq_ft=1798, type=Residential, sale_data=Mon May 19 06:00:00 CEST 2008, price=238861.0, lattitude=38.277177, longtitude=-121.303747}
Home{street='3305 RIO ROCA CT', city='ANTELOPE', zip='95843', state='CA', beds=4, baths=3, sq_ft=2652, type=Residential, sale_data=Mon May 19 06:00:00 CEST 2008, price=239700.0, lattitude=38.725079, longtitude=-121.387698}
Home{street='9080 BEDROCK CT', city='SACRAMENTO', zip='95829', state='CA', beds=4, baths=2, sq_ft=1816, type=Residential, sale_data=Mon May 19 06:00:00 CEST 2008, price=240000.0, lattitude=38.456939, longtitude=-121.362965}
Home{street='100 TOURMALINE CIR', city='SACRAMENTO', zip='95834', state='CA', beds=5, baths=3, sq_ft=3076, type=Residential, sale_data=Mon May 19 06:00:00 CEST 2008, price=240000.0, lattitude=38.63437, longtitude=-121.510779}
Home{street='6411 RED BIRCH WAY', city='ELK GROVE', zip='95758', state='CA', beds=4, baths=2, sq_ft=1844, type=Residential, sale_data=Mon May 19 06:00:00 CEST 2008, price=241000.0, lattitude=38.43461, longtitude=-121.429316}
Home{street='4867 LAGUNA DR', city='SACRAMENTO', zip='95823', state='CA', beds=3, baths=2, sq_ft=1306, type=Residential, sale_data=Mon May 19 06:00:00 CEST 2008, price=245000.0, lattitude=38.46179, longtitude=-121.445371}
Home{street='3662 RIVER DR', city='SACRAMENTO', zip='95833', state='CA', beds=4, baths=3, sq_ft=2447, type=Residential, sale_data=Mon May 19 06:00:00 CEST 2008, price=246000.0, lattitude=38.604969, longtitude=-121.54255}
Home{street='6943 WOLFGRAM WAY', city='SACRAMENTO', zip='95828', state='CA', beds=4, baths=2, sq_ft=1176, type=Residential, sale_data=Mon May 19 06:00:00 CEST 2008, price=247234.0, lattitude=38.489215, longtitude=-121.419546}
Home{street='77 RINETTI WAY', city='RIO LINDA', zip='95673', state='CA', beds=4, baths=2, sq_ft=1182, type=Residential, sale_data=Mon May 19 06:00:00 CEST 2008, price=247480.0, lattitude=38.687021, longtitude=-121.463151}
Home{street='1316 I ST', city='RIO LINDA', zip='95673', state='CA', beds=3, baths=1, sq_ft=1160, type=Residential, sale_data=Mon May 19 06:00:00 CEST 2008, price=249862.0, lattitude=38.683674, longtitude=-121.435204}
Home{street='2130 CATHERWOOD WAY', city='SACRAMENTO', zip='95835', state='CA', beds=3, baths=2, sq_ft=1424, type=Residential, sale_data=Mon May 19 06:00:00 CEST 2008, price=251000.0, lattitude=38.675506, longtitude=-121.510987}
Home{street='8304 JUGLANS DR', city='ORANGEVALE', zip='95662', state='CA', beds=4, baths=2, sq_ft=1574, type=Residential, sale_data=Mon May 19 06:00:00 CEST 2008, price=252155.0, lattitude=38.691829, longtitude=-121.249033}
Home{street='5308 MARBURY WAY', city='ANTELOPE', zip='95843', state='CA', beds=3, baths=2, sq_ft=1830, type=Residential, sale_data=Mon May 19 06:00:00 CEST 2008, price=254172.0, lattitude=38.710221, longtitude=-121.341707}
Home{street='9182 LAKEMONT DR', city='ELK GROVE', zip='95624', state='CA', beds=4, baths=2, sq_ft=1724, type=Residential, sale_data=Mon May 19 06:00:00 CEST 2008, price=258000.0, lattitude=38.451353, longtitude=-121.358776}
Home{street='2231 COUNTRY VILLA CT', city='AUBURN', zip='95603', state='CA', beds=2, baths=2, sq_ft=1255, type=Condo, sale_data=Mon May 19 06:00:00 CEST 2008, price=260000.0, lattitude=38.931671, longtitude=-121.097862}
Home{street='8491 CRYSTAL WALK CIR', city='ELK GROVE', zip='95758', state='CA', beds=0, baths=0, sq_ft=0, type=Residential, sale_data=Mon May 19 06:00:00 CEST 2008, price=261000.0, lattitude=38.416916, longtitude=-121.407554}
Home{street='361 MAHONIA CIR', city='SACRAMENTO', zip='95835', state='CA', beds=4, baths=3, sq_ft=2175, type=Residential, sale_data=Mon May 19 06:00:00 CEST 2008, price=261000.0, lattitude=38.676172, longtitude=-121.509761}
Home{street='3427 LA CADENA WAY', city='SACRAMENTO', zip='95835', state='CA', beds=4, baths=2, sq_ft=1904, type=Residential, sale_data=Mon May 19 06:00:00 CEST 2008, price=261000.0, lattitude=38.681194, longtitude=-121.537351}
Home{street='955 BIG SUR CT', city='EL DORADO HILLS', zip='95762', state='CA', beds=4, baths=2, sq_ft=1808, type=Residential, sale_data=Mon May 19 06:00:00 CEST 2008, price=262500.0, lattitude=38.664347, longtitude=-121.076529}
Home{street='11826 DIONYSUS WAY', city='RANCHO CORDOVA', zip='95742', state='CA', beds=4, baths=2, sq_ft=2711, type=Residential, sale_data=Mon May 19 06:00:00 CEST 2008, price=266000.0, lattitude=38.551046, longtitude=-121.239411}
Home{street='5847 DEL CAMPO LN', city='CARMICHAEL', zip='95608', state='CA', beds=3, baths=1, sq_ft=1713, type=Residential, sale_data=Mon May 19 06:00:00 CEST 2008, price=266000.0, lattitude=38.671995, longtitude=-121.324339}
Home{street='5635 FOXVIEW WAY', city='ELK GROVE', zip='95757', state='CA', beds=3, baths=2, sq_ft=1457, type=Residential, sale_data=Mon May 19 06:00:00 CEST 2008, price=270000.0, lattitude=38.395256, longtitude=-121.438249}
Home{street='10372 VIA CINTA CT', city='ELK GROVE', zip='95757', state='CA', beds=4, baths=3, sq_ft=2724, type=Residential, sale_data=Mon May 19 06:00:00 CEST 2008, price=274425.0, lattitude=38.380089, longtitude=-121.428186}
Home{street='6286 LONETREE BLVD', city='ROCKLIN', zip='95765', state='CA', beds=0, baths=0, sq_ft=0, type=Residential, sale_data=Mon May 19 06:00:00 CEST 2008, price=274500.0, lattitude=38.805036, longtitude=-121.293608}
Home{street='7744 SOUTHBREEZE DR', city='SACRAMENTO', zip='95828', state='CA', beds=3, baths=2, sq_ft=1468, type=Residential, sale_data=Mon May 19 06:00:00 CEST 2008, price=275336.0, lattitude=38.476932, longtitude=-121.378349}
Home{street='2242 ABLE WAY', city='SACRAMENTO', zip='95835', state='CA', beds=4, baths=3, sq_ft=2550, type=Residential, sale_data=Mon May 19 06:00:00 CEST 2008, price=277980.0, lattitude=38.666074, longtitude=-121.509743}
Home{street='1042 STARBROOK DR', city='GALT', zip='95632', state='CA', beds=4, baths=2, sq_ft=1928, type=Residential, sale_data=Mon May 19 06:00:00 CEST 2008, price=280000.0, lattitude=38.285611, longtitude=-121.293063}
Home{street='1219 G ST', city='SACRAMENTO', zip='95814', state='CA', beds=3, baths=3, sq_ft=1922, type=Residential, sale_data=Mon May 19 06:00:00 CEST 2008, price=284686.0, lattitude=38.582818, longtitude=-121.489096}
Home{street='6220 OPUS CT', city='CITRUS HEIGHTS', zip='95621', state='CA', beds=3, baths=2, sq_ft=1343, type=Residential, sale_data=Mon May 19 06:00:00 CEST 2008, price=284893.0, lattitude=38.715853, longtitude=-121.317095}
Home{street='5419 HAVENHURST CIR', city='ROCKLIN', zip='95677', state='CA', beds=3, baths=2, sq_ft=1510, type=Residential, sale_data=Mon May 19 06:00:00 CEST 2008, price=285000.0, lattitude=38.786746, longtitude=-121.209957}
Home{street='220 OLD AIRPORT RD', city='AUBURN', zip='95603', state='CA', beds=2, baths=2, sq_ft=960, type=Multi-Family, sale_data=Mon May 19 06:00:00 CEST 2008, price=285000.0, lattitude=38.939802, longtitude=-121.054575}
Home{street='4622 MEYER WAY', city='CARMICHAEL', zip='95608', state='CA', beds=4, baths=2, sq_ft=1559, type=Residential, sale_data=Mon May 19 06:00:00 CEST 2008, price=285000.0, lattitude=38.64913, longtitude=-121.310667}
Home{street='4885 SUMMIT VIEW DR', city='EL DORADO', zip='95623', state='CA', beds=3, baths=2, sq_ft=1624, type=Residential, sale_data=Mon May 19 06:00:00 CEST 2008, price=289000.0, lattitude=38.673285, longtitude=-120.879176}
Home{street='26 JEANROSS CT', city='SACRAMENTO', zip='95832', state='CA', beds=5, baths=3, sq_ft=2992, type=Residential, sale_data=Mon May 19 06:00:00 CEST 2008, price=295000.0, lattitude=38.473162, longtitude=-121.491085}
Home{street='4800 MAPLEPLAIN AVE', city='ELK GROVE', zip='95758', state='CA', beds=4, baths=2, sq_ft=2109, type=Residential, sale_data=Mon May 19 06:00:00 CEST 2008, price=296000.0, lattitude=38.432848, longtitude=-121.449237}
Home{street='10629 BASIE WAY', city='RANCHO CORDOVA', zip='95670', state='CA', beds=4, baths=2, sq_ft=1524, type=Residential, sale_data=Mon May 19 06:00:00 CEST 2008, price=296056.0, lattitude=38.579, longtitude=-121.292627}
Home{street='8612 WILLOW GROVE WAY', city='SACRAMENTO', zip='95828', state='CA', beds=3, baths=2, sq_ft=1248, type=Residential, sale_data=Mon May 19 06:00:00 CEST 2008, price=297359.0, lattitude=38.464994, longtitude=-121.386962}
Home{street='62 DE FER CIR', city='SACRAMENTO', zip='95823', state='CA', beds=4, baths=2, sq_ft=1876, type=Residential, sale_data=Mon May 19 06:00:00 CEST 2008, price=299940.0, lattitude=38.49254, longtitude=-121.463316}
Home{street='2513 OLD KENMARE RD', city='LINCOLN', zip='95648', state='CA', beds=5, baths=3, sq_ft=0, type=Residential, sale_data=Mon May 19 06:00:00 CEST 2008, price=304000.0, lattitude=38.847396, longtitude=-121.259586}
Home{street='3253 ABOTO WAY', city='RANCHO CORDOVA', zip='95670', state='CA', beds=4, baths=3, sq_ft=1851, type=Residential, sale_data=Mon May 19 06:00:00 CEST 2008, price=305000.0, lattitude=38.57727, longtitude=-121.285591}
Home{street='3072 VILLAGE PLAZA DR', city='ROSEVILLE', zip='95747', state='CA', beds=0, baths=0, sq_ft=0, type=Residential, sale_data=Mon May 19 06:00:00 CEST 2008, price=307000.0, lattitude=38.773094, longtitude=-121.365905}
Home{street='251 CHANGO CIR', city='SACRAMENTO', zip='95835', state='CA', beds=4, baths=2, sq_ft=2218, type=Residential, sale_data=Mon May 19 06:00:00 CEST 2008, price=311328.0, lattitude=38.68237, longtitude=-121.539147}
Home{street='8205 WEYBURN CT', city='SACRAMENTO', zip='95828', state='CA', beds=3, baths=2, sq_ft=1394, type=Residential, sale_data=Mon May 19 06:00:00 CEST 2008, price=313138.0, lattitude=38.47316, longtitude=-121.403893}
Home{street='8788 LA MARGARITA WAY', city='SACRAMENTO', zip='95828', state='CA', beds=3, baths=2, sq_ft=1410, type=Residential, sale_data=Mon May 19 06:00:00 CEST 2008, price=316630.0, lattitude=38.468185, longtitude=-121.375694}
Home{street='5912 DEEPDALE WAY', city='ELK GROVE', zip='95758', state='CA', beds=5, baths=3, sq_ft=3468, type=Residential, sale_data=Mon May 19 06:00:00 CEST 2008, price=320000.0, lattitude=38.439565, longtitude=-121.436606}
Home{street='4712 PISMO BEACH DR', city='ANTELOPE', zip='95843', state='CA', beds=5, baths=3, sq_ft=2346, type=Residential, sale_data=Mon May 19 06:00:00 CEST 2008, price=320000.0, lattitude=38.707705, longtitude=-121.354153}
Home{street='4741 PACIFIC PARK DR', city='ANTELOPE', zip='95843', state='CA', beds=5, baths=3, sq_ft=2347, type=Residential, sale_data=Mon May 19 06:00:00 CEST 2008, price=325000.0, lattitude=38.709299, longtitude=-121.353056}
Home{street='310 GROTH CIR', city='SACRAMENTO', zip='95834', state='CA', beds=4, baths=2, sq_ft=1659, type=Residential, sale_data=Mon May 19 06:00:00 CEST 2008, price=328578.0, lattitude=38.638764, longtitude=-121.531827}
Home{street='6121 WILD FOX CT', city='ELK GROVE', zip='95757', state='CA', beds=3, baths=3, sq_ft=2442, type=Residential, sale_data=Mon May 19 06:00:00 CEST 2008, price=331000.0, lattitude=38.406758, longtitude=-121.431669}
Home{street='12241 CANYONLANDS DR', city='RANCHO CORDOVA', zip='95742', state='CA', beds=0, baths=0, sq_ft=0, type=Residential, sale_data=Mon May 19 06:00:00 CEST 2008, price=331500.0, lattitude=38.557293, longtitude=-121.217611}
Home{street='29 COOL FOUNTAIN CT', city='SACRAMENTO', zip='95833', state='CA', beds=4, baths=2, sq_ft=2155, type=Residential, sale_data=Mon May 19 06:00:00 CEST 2008, price=340000.0, lattitude=38.606906, longtitude=-121.54132}
Home{street='907 RIO ROBLES AVE', city='SACRAMENTO', zip='95838', state='CA', beds=0, baths=0, sq_ft=0, type=Residential, sale_data=Mon May 19 06:00:00 CEST 2008, price=344755.0, lattitude=38.664765, longtitude=-121.445006}
Home{street='8909 BILLFISH WAY', city='SACRAMENTO', zip='95828', state='CA', beds=3, baths=2, sq_ft=1810, type=Residential, sale_data=Mon May 19 06:00:00 CEST 2008, price=345746.0, lattitude=38.475433, longtitude=-121.372584}
Home{street='6232 GUS WAY', city='ELK GROVE', zip='95757', state='CA', beds=4, baths=2, sq_ft=2789, type=Residential, sale_data=Mon May 19 06:00:00 CEST 2008, price=351000.0, lattitude=38.388129, longtitude=-121.43117}
Home{street='200 OAKWILDE ST', city='GALT', zip='95632', state='CA', beds=4, baths=2, sq_ft=1606, type=Residential, sale_data=Mon May 19 06:00:00 CEST 2008, price=353767.0, lattitude=38.2535, longtitude=-121.31812}
Home{street='1033 PARK STREAM DR', city='GALT', zip='95632', state='CA', beds=0, baths=0, sq_ft=0, type=Residential, sale_data=Mon May 19 06:00:00 CEST 2008, price=355000.0, lattitude=38.287785, longtitude=-121.289903}
Home{street='200 ALLAIRE CIR', city='SACRAMENTO', zip='95835', state='CA', beds=4, baths=2, sq_ft=2166, type=Residential, sale_data=Mon May 19 06:00:00 CEST 2008, price=356035.0, lattitude=38.68318, longtitude=-121.53484}
Home{street='1322 SUTTER WALK', city='SACRAMENTO', zip='95816', state='CA', beds=0, baths=0, sq_ft=0, type=Condo, sale_data=Mon May 19 06:00:00 CEST 2008, price=360000.0, lattitude=38.53805, longtitude=-121.5047}
Home{street='5479 NICKMAN WAY', city='SACRAMENTO', zip='95835', state='CA', beds=4, baths=2, sq_ft=1871, type=Residential, sale_data=Mon May 19 06:00:00 CEST 2008, price=360552.0, lattitude=38.672966, longtitude=-121.502748}
Home{street='2103 BURBERRY WAY', city='SACRAMENTO', zip='95835', state='CA', beds=3, baths=2, sq_ft=1800, type=Residential, sale_data=Mon May 19 06:00:00 CEST 2008, price=362305.0, lattitude=38.67342, longtitude=-121.508542}
Home{street='2450 SAN JOSE WAY', city='SACRAMENTO', zip='95817', state='CA', beds=3, baths=1, sq_ft=1683, type=Residential, sale_data=Mon May 19 06:00:00 CEST 2008, price=365000.0, lattitude=38.553596, longtitude=-121.459483}
Home{street='7641 ROSEHALL DR', city='ROSEVILLE', zip='95678', state='CA', beds=3, baths=2, sq_ft=0, type=Residential, sale_data=Mon May 19 06:00:00 CEST 2008, price=367554.0, lattitude=38.791617, longtitude=-121.286147}
Home{street='1336 LAYSAN TEAL DR', city='ROSEVILLE', zip='95747', state='CA', beds=0, baths=0, sq_ft=0, type=Residential, sale_data=Mon May 19 06:00:00 CEST 2008, price=368500.0, lattitude=38.796121, longtitude=-121.319963}
Home{street='2802 BLACK OAK DR', city='ROCKLIN', zip='95765', state='CA', beds=2, baths=2, sq_ft=1596, type=Residential, sale_data=Mon May 19 06:00:00 CEST 2008, price=370000.0, lattitude=38.837006, longtitude=-121.232024}
Home{street='2113 FALL TRAIL CT', city='PLACERVILLE', zip='95667', state='CA', beds=4, baths=2, sq_ft=0, type=Residential, sale_data=Mon May 19 06:00:00 CEST 2008, price=371086.0, lattitude=38.733155, longtitude=-120.748039}
Home{street='10112 LAMBEAU CT', city='ELK GROVE', zip='95757', state='CA', beds=3, baths=2, sq_ft=1179, type=Residential, sale_data=Mon May 19 06:00:00 CEST 2008, price=378000.0, lattitude=38.390328, longtitude=-121.448022}
Home{street='6313 CASTRO VERDE WAY', city='ELK GROVE', zip='95757', state='CA', beds=0, baths=0, sq_ft=0, type=Residential, sale_data=Mon May 19 06:00:00 CEST 2008, price=383000.0, lattitude=38.381102, longtitude=-121.42901}
Home{street='3622 CURTIS DR', city='SACRAMENTO', zip='95818', state='CA', beds=3, baths=1, sq_ft=1639, type=Residential, sale_data=Mon May 19 06:00:00 CEST 2008, price=388000.0, lattitude=38.541735, longtitude=-121.480098}
Home{street='11817 OPAL RIDGE WAY', city='RANCHO CORDOVA', zip='95742', state='CA', beds=5, baths=3, sq_ft=3281, type=Residential, sale_data=Mon May 19 06:00:00 CEST 2008, price=395100.0, lattitude=38.551083, longtitude=-121.237476}
Home{street='170 LAGOMARSINO WAY', city='SACRAMENTO', zip='95819', state='CA', beds=3, baths=2, sq_ft=1697, type=Residential, sale_data=Mon May 19 06:00:00 CEST 2008, price=400000.0, lattitude=38.574894, longtitude=-121.435806}
Home{street='2743 DEAKIN PL', city='EL DORADO HILLS', zip='95762', state='CA', beds=3, baths=2, sq_ft=0, type=Residential, sale_data=Mon May 19 06:00:00 CEST 2008, price=400000.0, lattitude=38.69288, longtitude=-121.073551}
Home{street='3361 ALDER CANYON WAY', city='ANTELOPE', zip='95843', state='CA', beds=4, baths=3, sq_ft=2085, type=Residential, sale_data=Mon May 19 06:00:00 CEST 2008, price=408431.0, lattitude=38.727649, longtitude=-121.385656}
Home{street='2148 RANCH VIEW DR', city='ROCKLIN', zip='95765', state='CA', beds=0, baths=0, sq_ft=0, type=Residential, sale_data=Mon May 19 06:00:00 CEST 2008, price=413000.0, lattitude=38.837455, longtitude=-121.289337}
Home{street='398 LINDLEY DR', city='SACRAMENTO', zip='95815', state='CA', beds=4, baths=2, sq_ft=1744, type=Multi-Family, sale_data=Mon May 19 06:00:00 CEST 2008, price=416767.0, lattitude=38.622359, longtitude=-121.457582}
Home{street='3013 BRIDLEWOOD DR', city='EL DORADO HILLS', zip='95762', state='CA', beds=4, baths=3, sq_ft=0, type=Residential, sale_data=Mon May 19 06:00:00 CEST 2008, price=420000.0, lattitude=38.675519, longtitude=-121.015862}
Home{street='169 BAURER CIR', city='FOLSOM', zip='95630', state='CA', beds=4, baths=3, sq_ft=1939, type=Residential, sale_data=Mon May 19 06:00:00 CEST 2008, price=423000.0, lattitude=38.66695, longtitude=-121.120729}
Home{street='2809 LOON CT', city='CAMERON PARK', zip='95682', state='CA', beds=4, baths=2, sq_ft=0, type=Residential, sale_data=Mon May 19 06:00:00 CEST 2008, price=423000.0, lattitude=38.687072, longtitude=-121.004729}
Home{street='1315 KONDOS AVE', city='SACRAMENTO', zip='95814', state='CA', beds=2, baths=3, sq_ft=1788, type=Residential, sale_data=Mon May 19 06:00:00 CEST 2008, price=427500.0, lattitude=38.571943, longtitude=-121.492106}
Home{street='4966 CHARTER RD', city='ROCKLIN', zip='95765', state='CA', beds=3, baths=2, sq_ft=1691, type=Residential, sale_data=Mon May 19 06:00:00 CEST 2008, price=430922.0, lattitude=38.82553, longtitude=-121.254698}
Home{street='9516 LAGUNA LAKE WAY', city='ELK GROVE', zip='95758', state='CA', beds=4, baths=2, sq_ft=2002, type=Residential, sale_data=Mon May 19 06:00:00 CEST 2008, price=445000.0, lattitude=38.411258, longtitude=-121.431348}
Home{street='5201 BLOSSOM RANCH DR', city='ELK GROVE', zip='95757', state='CA', beds=4, baths=4, sq_ft=4303, type=Residential, sale_data=Mon May 19 06:00:00 CEST 2008, price=450000.0, lattitude=38.399436, longtitude=-121.444041}
Home{street='3027 PALMATE WAY', city='SACRAMENTO', zip='95834', state='CA', beds=5, baths=3, sq_ft=4246, type=Residential, sale_data=Mon May 19 06:00:00 CEST 2008, price=452000.0, lattitude=38.628955, longtitude=-121.529269}
Home{street='500 WINCHESTER CT', city='ROSEVILLE', zip='95661', state='CA', beds=3, baths=2, sq_ft=2274, type=Residential, sale_data=Mon May 19 06:00:00 CEST 2008, price=470000.0, lattitude=38.73988, longtitude=-121.248929}
Home{street='5746 GELSTON WAY', city='EL DORADO HILLS', zip='95762', state='CA', beds=4, baths=3, sq_ft=0, type=Residential, sale_data=Mon May 19 06:00:00 CEST 2008, price=471000.0, lattitude=38.677015, longtitude=-121.034083}
Home{street='6935 ELM TREE LN', city='ORANGEVALE', zip='95662', state='CA', beds=4, baths=4, sq_ft=3056, type=Residential, sale_data=Mon May 19 06:00:00 CEST 2008, price=475000.0, lattitude=38.693041, longtitude=-121.23294}
Home{street='9605 GOLF COURSE LN', city='ELK GROVE', zip='95758', state='CA', beds=3, baths=3, sq_ft=2503, type=Residential, sale_data=Mon May 19 06:00:00 CEST 2008, price=484500.0, lattitude=38.409689, longtitude=-121.446059}
Home{street='719 BAYWOOD CT', city='EL DORADO HILLS', zip='95762', state='CA', beds=5, baths=3, sq_ft=0, type=Residential, sale_data=Mon May 19 06:00:00 CEST 2008, price=487500.0, lattitude=38.647598, longtitude=-121.077801}
Home{street='5954 TANUS CIR', city='ROCKLIN', zip='95677', state='CA', beds=3, baths=3, sq_ft=0, type=Residential, sale_data=Mon May 19 06:00:00 CEST 2008, price=488750.0, lattitude=38.777585, longtitude=-121.2036}
Home{street='100 CHELSEA CT', city='FOLSOM', zip='95630', state='CA', beds=3, baths=2, sq_ft=1905, type=Residential, sale_data=Mon May 19 06:00:00 CEST 2008, price=500000.0, lattitude=38.69435, longtitude=-121.177259}
Home{street='1500 ORANGE HILL LN', city='PENRYN', zip='95663', state='CA', beds=3, baths=2, sq_ft=1320, type=Residential, sale_data=Mon May 19 06:00:00 CEST 2008, price=506688.0, lattitude=38.862708, longtitude=-121.162092}
Home{street='408 KIRKWOOD CT', city='LINCOLN', zip='95648', state='CA', beds=2, baths=2, sq_ft=0, type=Residential, sale_data=Mon May 19 06:00:00 CEST 2008, price=512000.0, lattitude=38.861615, longtitude=-121.26869}
Home{street='1732 TUSCAN GROVE CIR', city='ROSEVILLE', zip='95747', state='CA', beds=5, baths=3, sq_ft=0, type=Residential, sale_data=Mon May 19 06:00:00 CEST 2008, price=520000.0, lattitude=38.796683, longtitude=-121.342555}
Home{street='2049 EMPIRE MINE CIR', city='GOLD RIVER', zip='95670', state='CA', beds=4, baths=2, sq_ft=3037, type=Residential, sale_data=Mon May 19 06:00:00 CEST 2008, price=528000.0, lattitude=38.629299, longtitude=-121.249021}
Home{street='9360 MAGOS RD', city='WILTON', zip='95693', state='CA', beds=5, baths=2, sq_ft=3741, type=Residential, sale_data=Mon May 19 06:00:00 CEST 2008, price=579093.0, lattitude=38.416809, longtitude=-121.240628}
Home{street='104 CATLIN CT', city='FOLSOM', zip='95630', state='CA', beds=4, baths=3, sq_ft=2660, type=Residential, sale_data=Mon May 19 06:00:00 CEST 2008, price=636000.0, lattitude=38.684459, longtitude=-121.145935}
Home{street='4734 GIBBONS DR', city='CARMICHAEL', zip='95608', state='CA', beds=4, baths=3, sq_ft=3357, type=Residential, sale_data=Mon May 19 06:00:00 CEST 2008, price=668365.0, lattitude=38.63558, longtitude=-121.353639}
Home{street='4629 DORCHESTER LN', city='GRANITE BAY', zip='95746', state='CA', beds=5, baths=3, sq_ft=2896, type=Residential, sale_data=Mon May 19 06:00:00 CEST 2008, price=676200.0, lattitude=38.723545, longtitude=-121.216025}
Home{street='2400 COUNTRYSIDE DR', city='PLACERVILLE', zip='95667', state='CA', beds=3, baths=2, sq_ft=2025, type=Residential, sale_data=Mon May 19 06:00:00 CEST 2008, price=677048.0, lattitude=38.737452, longtitude=-120.910963}
Home{street='12901 FURLONG DR', city='WILTON', zip='95693', state='CA', beds=5, baths=3, sq_ft=3788, type=Residential, sale_data=Mon May 19 06:00:00 CEST 2008, price=691659.0, lattitude=38.413535, longtitude=-121.188211}
Home{street='6222 CALLE MONTALVO CIR', city='GRANITE BAY', zip='95746', state='CA', beds=5, baths=3, sq_ft=3670, type=Residential, sale_data=Mon May 19 06:00:00 CEST 2008, price=760000.0, lattitude=38.779435, longtitude=-121.146676}
Home{street='5733 ANGELINA AVE', city='CARMICHAEL', zip='95608', state='CA', beds=3, baths=1, sq_ft=972, type=Residential, sale_data=Fri May 16 06:00:00 CEST 2008, price=201000.0, lattitude=38.622634, longtitude=-121.330846}
Home{street='7849 BONNY DOWNS WAY', city='ELK GROVE', zip='95758', state='CA', beds=4, baths=2, sq_ft=2306, type=Residential, sale_data=Fri May 16 06:00:00 CEST 2008, price=204918.0, lattitude=38.42139, longtitude=-121.411339}
Home{street='8716 LONGSPUR WAY', city='ANTELOPE', zip='95843', state='CA', beds=3, baths=2, sq_ft=1479, type=Residential, sale_data=Fri May 16 06:00:00 CEST 2008, price=205000.0, lattitude=38.724083, longtitude=-121.3584}
Home{street='6320 EL DORADO ST', city='EL DORADO', zip='95623', state='CA', beds=2, baths=1, sq_ft=1040, type=Residential, sale_data=Fri May 16 06:00:00 CEST 2008, price=205000.0, lattitude=38.678758, longtitude=-120.844118}
Home{street='2328 DOROTHY JUNE WAY', city='SACRAMENTO', zip='95838', state='CA', beds=3, baths=2, sq_ft=1430, type=Residential, sale_data=Fri May 16 06:00:00 CEST 2008, price=205878.0, lattitude=38.641727, longtitude=-121.412703}
Home{street='1986 DANVERS WAY', city='SACRAMENTO', zip='95832', state='CA', beds=4, baths=2, sq_ft=1800, type=Residential, sale_data=Fri May 16 06:00:00 CEST 2008, price=207000.0, lattitude=38.47723, longtitude=-121.492568}
Home{street='7901 GAZELLE TRAIL WAY', city='ANTELOPE', zip='95843', state='CA', beds=4, baths=2, sq_ft=1953, type=Residential, sale_data=Fri May 16 06:00:00 CEST 2008, price=207744.0, lattitude=38.71174, longtitude=-121.342675}
Home{street='6080 BRIDGECROSS DR', city='SACRAMENTO', zip='95835', state='CA', beds=3, baths=2, sq_ft=1120, type=Residential, sale_data=Fri May 16 06:00:00 CEST 2008, price=209000.0, lattitude=38.681952, longtitude=-121.505009}
Home{street='20 GROTH CIR', city='SACRAMENTO', zip='95834', state='CA', beds=3, baths=2, sq_ft=1232, type=Residential, sale_data=Fri May 16 06:00:00 CEST 2008, price=210000.0, lattitude=38.640807, longtitude=-121.533522}
Home{street='1900 DANBROOK DR', city='SACRAMENTO', zip='95835', state='CA', beds=1, baths=1, sq_ft=984, type=Condo, sale_data=Fri May 16 06:00:00 CEST 2008, price=210944.0, lattitude=38.668433, longtitude=-121.503471}
Home{street='140 VENTO CT', city='ROSEVILLE', zip='95678', state='CA', beds=3, baths=2, sq_ft=0, type=Condo, sale_data=Fri May 16 06:00:00 CEST 2008, price=212500.0, lattitude=38.793533, longtitude=-121.289685}
Home{street='8442 KEUSMAN ST', city='ELK GROVE', zip='95758', state='CA', beds=4, baths=2, sq_ft=2329, type=Residential, sale_data=Fri May 16 06:00:00 CEST 2008, price=213750.0, lattitude=38.449651, longtitude=-121.414704}
Home{street='9552 SUNLIGHT LN', city='ELK GROVE', zip='95758', state='CA', beds=3, baths=2, sq_ft=1351, type=Residential, sale_data=Fri May 16 06:00:00 CEST 2008, price=215000.0, lattitude=38.410561, longtitude=-121.404327}
Home{street='2733 YUMA CT', city='CAMERON PARK', zip='95682', state='CA', beds=2, baths=2, sq_ft=0, type=Residential, sale_data=Fri May 16 06:00:00 CEST 2008, price=215000.0, lattitude=38.691215, longtitude=-120.994949}
Home{street='1407 TIFFANY CIR', city='ROSEVILLE', zip='95661', state='CA', beds=4, baths=1, sq_ft=1376, type=Residential, sale_data=Fri May 16 06:00:00 CEST 2008, price=215000.0, lattitude=38.736392, longtitude=-121.2664}
Home{street='636 CRESTVIEW DR', city='DIAMOND SPRINGS', zip='95619', state='CA', beds=3, baths=2, sq_ft=1300, type=Residential, sale_data=Fri May 16 06:00:00 CEST 2008, price=216033.0, lattitude=38.688255, longtitude=-120.810235}
Home{street='1528 HESKET WAY', city='SACRAMENTO', zip='95825', state='CA', beds=4, baths=2, sq_ft=1566, type=Residential, sale_data=Fri May 16 06:00:00 CEST 2008, price=220000.0, lattitude=38.593598, longtitude=-121.403637}
Home{street='2327 32ND ST', city='SACRAMENTO', zip='95817', state='CA', beds=2, baths=1, sq_ft=1115, type=Residential, sale_data=Fri May 16 06:00:00 CEST 2008, price=220000.0, lattitude=38.557433, longtitude=-121.47034}
Home{street='1833 2ND AVE', city='SACRAMENTO', zip='95818', state='CA', beds=2, baths=1, sq_ft=1032, type=Residential, sale_data=Fri May 16 06:00:00 CEST 2008, price=220000.0, lattitude=38.556818, longtitude=-121.490669}
Home{street='7252 CARRIAGE DR', city='CITRUS HEIGHTS', zip='95621', state='CA', beds=4, baths=2, sq_ft=1419, type=Residential, sale_data=Fri May 16 06:00:00 CEST 2008, price=220000.0, lattitude=38.698058, longtitude=-121.294893}
Home{street='9815 PASO FINO WAY', city='ELK GROVE', zip='95757', state='CA', beds=3, baths=2, sq_ft=1261, type=Residential, sale_data=Fri May 16 06:00:00 CEST 2008, price=220000.0, lattitude=38.404888, longtitude=-121.443998}
Home{street='5532 ENGLE RD', city='CARMICHAEL', zip='95608', state='CA', beds=2, baths=2, sq_ft=1637, type=Residential, sale_data=Fri May 16 06:00:00 CEST 2008, price=220702.0, lattitude=38.63173, longtitude=-121.335286}
Home{street='1139 CLINTON RD', city='SACRAMENTO', zip='95825', state='CA', beds=4, baths=2, sq_ft=1776, type=Multi-Family, sale_data=Fri May 16 06:00:00 CEST 2008, price=221250.0, lattitude=38.585291, longtitude=-121.406824}
Home{street='9176 SAGE GLEN WAY', city='ELK GROVE', zip='95758', state='CA', beds=3, baths=2, sq_ft=1338, type=Residential, sale_data=Fri May 16 06:00:00 CEST 2008, price=222000.0, lattitude=38.423913, longtitude=-121.439115}
Home{street='9967 HATHERTON WAY', city='ELK GROVE', zip='95757', state='CA', beds=0, baths=0, sq_ft=0, type=Residential, sale_data=Fri May 16 06:00:00 CEST 2008, price=222500.0, lattitude=38.3052, longtitude=-121.4033}
Home{street='9264 BOULDER RIVER WAY', city='ELK GROVE', zip='95624', state='CA', beds=5, baths=2, sq_ft=2254, type=Residential, sale_data=Fri May 16 06:00:00 CEST 2008, price=222750.0, lattitude=38.421713, longtitude=-121.345191}
Home{street='320 GROTH CIR', city='SACRAMENTO', zip='95834', state='CA', beds=3, baths=2, sq_ft=1441, type=Residential, sale_data=Fri May 16 06:00:00 CEST 2008, price=225000.0, lattitude=38.638882, longtitude=-121.531883}
Home{street='137 GUNNISON AVE', city='SACRAMENTO', zip='95838', state='CA', beds=4, baths=2, sq_ft=1991, type=Residential, sale_data=Fri May 16 06:00:00 CEST 2008, price=225000.0, lattitude=38.650729, longtitude=-121.466483}
Home{street='8209 RIVALLO WAY', city='SACRAMENTO', zip='95829', state='CA', beds=4, baths=3, sq_ft=2126, type=Residential, sale_data=Fri May 16 06:00:00 CEST 2008, price=228750.0, lattitude=38.459524, longtitude=-121.3501}
Home{street='8637 PERIWINKLE CIR', city='ELK GROVE', zip='95624', state='CA', beds=3, baths=2, sq_ft=1094, type=Residential, sale_data=Fri May 16 06:00:00 CEST 2008, price=229000.0, lattitude=38.443184, longtitude=-121.364388}
Home{street='3425 MEADOW WAY', city='ROCKLIN', zip='95677', state='CA', beds=3, baths=2, sq_ft=1462, type=Residential, sale_data=Fri May 16 06:00:00 CEST 2008, price=230095.0, lattitude=38.798028, longtitude=-121.235364}
Home{street='107 JARVIS CIR', city='SACRAMENTO', zip='95834', state='CA', beds=5, baths=3, sq_ft=2258, type=Residential, sale_data=Fri May 16 06:00:00 CEST 2008, price=232500.0, lattitude=38.639891, longtitude=-121.537603}
Home{street='2319 THORES ST', city='RANCHO CORDOVA', zip='95670', state='CA', beds=3, baths=2, sq_ft=1074, type=Residential, sale_data=Fri May 16 06:00:00 CEST 2008, price=233000.0, lattitude=38.59675, longtitude=-121.312716}
Home{street='8935 MOUNTAIN HOME CT', city='ELK GROVE', zip='95624', state='CA', beds=4, baths=2, sq_ft=2111, type=Residential, sale_data=Fri May 16 06:00:00 CEST 2008, price=233500.0, lattitude=38.38751, longtitude=-121.370276}
Home{street='2566 SERENATA WAY', city='SACRAMENTO', zip='95835', state='CA', beds=3, baths=2, sq_ft=1686, type=Residential, sale_data=Fri May 16 06:00:00 CEST 2008, price=239000.0, lattitude=38.671556, longtitude=-121.520916}
Home{street='4085 COUNTRY DR', city='ANTELOPE', zip='95843', state='CA', beds=4, baths=3, sq_ft=1915, type=Residential, sale_data=Fri May 16 06:00:00 CEST 2008, price=240000.0, lattitude=38.706209, longtitude=-121.369509}
Home{street='9297 TROUT WAY', city='ELK GROVE', zip='95624', state='CA', beds=4, baths=2, sq_ft=2367, type=Residential, sale_data=Fri May 16 06:00:00 CEST 2008, price=240000.0, lattitude=38.420637, longtitude=-121.375798}
Home{street='7 ARCHIBALD CT', city='SACRAMENTO', zip='95823', state='CA', beds=3, baths=2, sq_ft=1962, type=Residential, sale_data=Fri May 16 06:00:00 CEST 2008, price=240971.0, lattitude=38.443305, longtitude=-121.435296}
Home{street='11130 EEL RIVER CT', city='RANCHO CORDOVA', zip='95670', state='CA', beds=2, baths=2, sq_ft=1406, type=Residential, sale_data=Fri May 16 06:00:00 CEST 2008, price=242000.0, lattitude=38.625932, longtitude=-121.271517}
Home{street='8323 REDBANK WAY', city='SACRAMENTO', zip='95829', state='CA', beds=3, baths=2, sq_ft=1789, type=Residential, sale_data=Fri May 16 06:00:00 CEST 2008, price=243450.0, lattitude=38.455753, longtitude=-121.349273}
Home{street='16 BRONCO CREEK CT', city='SACRAMENTO', zip='95835', state='CA', beds=4, baths=2, sq_ft=1876, type=Residential, sale_data=Fri May 16 06:00:00 CEST 2008, price=243500.0, lattitude=38.674226, longtitude=-121.525497}
Home{street='8316 NORTHAM DR', city='ANTELOPE', zip='95843', state='CA', beds=3, baths=2, sq_ft=1235, type=Residential, sale_data=Fri May 16 06:00:00 CEST 2008, price=246544.0, lattitude=38.720767, longtitude=-121.376678}
Home{street='4240 WINJE DR', city='ANTELOPE', zip='95843', state='CA', beds=4, baths=2, sq_ft=2504, type=Residential, sale_data=Fri May 16 06:00:00 CEST 2008, price=246750.0, lattitude=38.70884, longtitude=-121.359559}
Home{street='3569 SODA WAY', city='SACRAMENTO', zip='95834', state='CA', beds=0, baths=0, sq_ft=0, type=Residential, sale_data=Fri May 16 06:00:00 CEST 2008, price=247000.0, lattitude=38.631139, longtitude=-121.501879}
Home{street='5118 ROBANDER ST', city='CARMICHAEL', zip='95608', state='CA', beds=3, baths=2, sq_ft=1676, type=Residential, sale_data=Fri May 16 06:00:00 CEST 2008, price=247000.0, lattitude=38.657267, longtitude=-121.310352}
Home{street='5976 KYLENCH CT', city='CITRUS HEIGHTS', zip='95621', state='CA', beds=3, baths=2, sq_ft=1367, type=Residential, sale_data=Fri May 16 06:00:00 CEST 2008, price=249000.0, lattitude=38.708966, longtitude=-121.32467}
Home{street='9247 DELAIR WAY', city='ELK GROVE', zip='95758', state='CA', beds=4, baths=3, sq_ft=1899, type=Residential, sale_data=Fri May 16 06:00:00 CEST 2008, price=249000.0, lattitude=38.422241, longtitude=-121.458022}
Home{street='9054 DESCENDANT DR', city='ELK GROVE', zip='95758', state='CA', beds=3, baths=2, sq_ft=1636, type=Residential, sale_data=Fri May 16 06:00:00 CEST 2008, price=250000.0, lattitude=38.428852, longtitude=-121.415628}
Home{street='3450 WHITNOR CT', city='SACRAMENTO', zip='95821', state='CA', beds=3, baths=2, sq_ft=1828, type=Residential, sale_data=Fri May 16 06:00:00 CEST 2008, price=250000.0, lattitude=38.627698, longtitude=-121.369698}
Home{street='6288 LONETREE BLVD', city='ROCKLIN', zip='95765', state='CA', beds=0, baths=0, sq_ft=0, type=Residential, sale_data=Fri May 16 06:00:00 CEST 2008, price=250000.0, lattitude=38.804993, longtitude=-121.293609}
Home{street='9355 MATADOR WAY', city='SACRAMENTO', zip='95826', state='CA', beds=4, baths=2, sq_ft=1438, type=Residential, sale_data=Fri May 16 06:00:00 CEST 2008, price=252000.0, lattitude=38.555633, longtitude=-121.350691}
Home{street='8671 SUMMER SUN WAY', city='ELK GROVE', zip='95624', state='CA', beds=3, baths=2, sq_ft=1451, type=Residential, sale_data=Fri May 16 06:00:00 CEST 2008, price=255000.0, lattitude=38.442845, longtitude=-121.373272}
Home{street='1890 GENEVA PL', city='SACRAMENTO', zip='95825', state='CA', beds=3, baths=1, sq_ft=1520, type=Residential, sale_data=Fri May 16 06:00:00 CEST 2008, price=255000.0, lattitude=38.599449, longtitude=-121.400305}
Home{street='1813 AVENIDA MARTINA', city='ROSEVILLE', zip='95747', state='CA', beds=3, baths=2, sq_ft=1506, type=Residential, sale_data=Fri May 16 06:00:00 CEST 2008, price=255000.0, lattitude=38.776649, longtitude=-121.339589}
Home{street='191 BARNHART CIR', city='SACRAMENTO', zip='95835', state='CA', beds=4, baths=2, sq_ft=2605, type=Residential, sale_data=Fri May 16 06:00:00 CEST 2008, price=257200.0, lattitude=38.675594, longtitude=-121.515878}
Home{street='6221 GREEN TOP WAY', city='ORANGEVALE', zip='95662', state='CA', beds=3, baths=2, sq_ft=1196, type=Residential, sale_data=Fri May 16 06:00:00 CEST 2008, price=260000.0, lattitude=38.679409, longtitude=-121.219107}
Home{street='2298 PRIMROSE LN', city='LINCOLN', zip='95648', state='CA', beds=3, baths=2, sq_ft=1621, type=Residential, sale_data=Fri May 16 06:00:00 CEST 2008, price=260000.0, lattitude=38.89918, longtitude=-121.322514}
Home{street='5635 LOS PUEBLOS WAY', city='SACRAMENTO', zip='95835', state='CA', beds=3, baths=2, sq_ft=1811, type=Residential, sale_data=Fri May 16 06:00:00 CEST 2008, price=263500.0, lattitude=38.679191, longtitude=-121.537622}
Home{street='10165 LOFTON WAY', city='ELK GROVE', zip='95757', state='CA', beds=3, baths=2, sq_ft=1540, type=Residential, sale_data=Fri May 16 06:00:00 CEST 2008, price=266510.0, lattitude=38.387708, longtitude=-121.436522}
Home{street='1251 GREEN RAVINE DR', city='LINCOLN', zip='95648', state='CA', beds=4, baths=2, sq_ft=0, type=Residential, sale_data=Fri May 16 06:00:00 CEST 2008, price=267750.0, lattitude=38.88156, longtitude=-121.301343}
Home{street='6001 SHOO FLY RD', city='PLACERVILLE', zip='95667', state='CA', beds=0, baths=0, sq_ft=0, type=Residential, sale_data=Fri May 16 06:00:00 CEST 2008, price=270000.0, lattitude=38.813546, longtitude=-120.809254}
Home{street='3040 PARKHAM DR', city='ROSEVILLE', zip='95747', state='CA', beds=0, baths=0, sq_ft=0, type=Residential, sale_data=Fri May 16 06:00:00 CEST 2008, price=271000.0, lattitude=38.770835, longtitude=-121.366996}
Home{street='2674 TAM O SHANTER DR', city='EL DORADO HILLS', zip='95762', state='CA', beds=4, baths=2, sq_ft=0, type=Residential, sale_data=Fri May 16 06:00:00 CEST 2008, price=272700.0, lattitude=38.695801, longtitude=-121.079216}
Home{street='6007 MARYBELLE LN', city='SHINGLE SPRINGS', zip='95682', state='CA', beds=0, baths=0, sq_ft=0, type=Unknown, sale_data=Fri May 16 06:00:00 CEST 2008, price=275000.0, lattitude=38.64347, longtitude=-120.888183}
Home{street='9949 NESTLING CIR', city='ELK GROVE', zip='95757', state='CA', beds=3, baths=2, sq_ft=1543, type=Residential, sale_data=Fri May 16 06:00:00 CEST 2008, price=275000.0, lattitude=38.397455, longtitude=-121.468391}
Home{street='2915 HOLDREGE WAY', city='SACRAMENTO', zip='95835', state='CA', beds=5, baths=3, sq_ft=2494, type=Residential, sale_data=Fri May 16 06:00:00 CEST 2008, price=276000.0, lattitude=38.663728, longtitude=-121.525833}
Home{street='2678 BRIARTON DR', city='LINCOLN', zip='95648', state='CA', beds=3, baths=2, sq_ft=1650, type=Residential, sale_data=Fri May 16 06:00:00 CEST 2008, price=276500.0, lattitude=38.844116, longtitude=-121.274806}
Home{street='294 SPARROW DR', city='GALT', zip='95632', state='CA', beds=4, baths=3, sq_ft=2214, type=Residential, sale_data=Fri May 16 06:00:00 CEST 2008, price=278000.0, lattitude=38.258976, longtitude=-121.321266}
Home{street='2987 DIORITE WAY', city='SACRAMENTO', zip='95835', state='CA', beds=5, baths=3, sq_ft=2280, type=Residential, sale_data=Fri May 16 06:00:00 CEST 2008, price=279000.0, lattitude=38.667332, longtitude=-121.528276}
Home{street='6326 APPIAN WAY', city='CARMICHAEL', zip='95608', state='CA', beds=3, baths=2, sq_ft=1443, type=Residential, sale_data=Fri May 16 06:00:00 CEST 2008, price=280000.0, lattitude=38.66266, longtitude=-121.316858}
Home{street='6905 COBALT WAY', city='CITRUS HEIGHTS', zip='95621', state='CA', beds=4, baths=2, sq_ft=1582, type=Residential, sale_data=Fri May 16 06:00:00 CEST 2008, price=280000.0, lattitude=38.691393, longtitude=-121.305215}
Home{street='8986 HAFLINGER WAY', city='ELK GROVE', zip='95757', state='CA', beds=3, baths=2, sq_ft=1857, type=Residential, sale_data=Fri May 16 06:00:00 CEST 2008, price=285000.0, lattitude=38.397923, longtitude=-121.450219}
Home{street='2916 BABSON DR', city='ELK GROVE', zip='95758', state='CA', beds=3, baths=2, sq_ft=1735, type=Residential, sale_data=Fri May 16 06:00:00 CEST 2008, price=288000.0, lattitude=38.417191, longtitude=-121.473897}
Home{street='10133 NEBBIOLO CT', city='ELK GROVE', zip='95624', state='CA', beds=4, baths=3, sq_ft=2096, type=Residential, sale_data=Fri May 16 06:00:00 CEST 2008, price=289000.0, lattitude=38.391085, longtitude=-121.347231}
Home{street='1103 COMMONS DR', city='SACRAMENTO', zip='95825', state='CA', beds=3, baths=2, sq_ft=1720, type=Residential, sale_data=Fri May 16 06:00:00 CEST 2008, price=290000.0, lattitude=38.567865, longtitude=-121.410699}
Home{street='4636 TEAL BAY CT', city='ANTELOPE', zip='95843', state='CA', beds=4, baths=2, sq_ft=2160, type=Residential, sale_data=Fri May 16 06:00:00 CEST 2008, price=290000.0, lattitude=38.704554, longtitude=-121.354753}
Home{street='1524 YOUNGS AVE', city='SACRAMENTO', zip='95838', state='CA', beds=4, baths=2, sq_ft=1382, type=Residential, sale_data=Fri May 16 06:00:00 CEST 2008, price=293996.0, lattitude=38.644927, longtitude=-121.43054}
Home{street='865 CONRAD CT', city='PLACERVILLE', zip='95667', state='CA', beds=3, baths=2, sq_ft=0, type=Residential, sale_data=Fri May 16 06:00:00 CEST 2008, price=294000.0, lattitude=38.729993, longtitude=-120.802458}
Home{street='8463 TERRACOTTA CT', city='ELK GROVE', zip='95624', state='CA', beds=4, baths=2, sq_ft=1721, type=Residential, sale_data=Fri May 16 06:00:00 CEST 2008, price=294173.0, lattitude=38.450548, longtitude=-121.363002}
Home{street='5747 KING RD', city='LOOMIS', zip='95650', state='CA', beds=4, baths=2, sq_ft=1328, type=Residential, sale_data=Fri May 16 06:00:00 CEST 2008, price=295000.0, lattitude=38.825096, longtitude=-121.198432}
Home{street='8253 KEEGAN WAY', city='ELK GROVE', zip='95624', state='CA', beds=0, baths=0, sq_ft=0, type=Residential, sale_data=Fri May 16 06:00:00 CEST 2008, price=298000.0, lattitude=38.446286, longtitude=-121.400817}
Home{street='9204 TROUT WAY', city='ELK GROVE', zip='95624', state='CA', beds=4, baths=2, sq_ft=1982, type=Residential, sale_data=Fri May 16 06:00:00 CEST 2008, price=298000.0, lattitude=38.422221, longtitude=-121.375799}
Home{street='1828 2ND AVE', city='SACRAMENTO', zip='95818', state='CA', beds=2, baths=1, sq_ft=1144, type=Residential, sale_data=Fri May 16 06:00:00 CEST 2008, price=299000.0, lattitude=38.556844, longtitude=-121.490769}
Home{street='1113 COMMONS DR', city='SACRAMENTO', zip='95825', state='CA', beds=2, baths=2, sq_ft=1623, type=Residential, sale_data=Fri May 16 06:00:00 CEST 2008, price=300000.0, lattitude=38.567795, longtitude=-121.410703}
Home{street='2341 BIG STRIKE TRL', city='COOL', zip='95614', state='CA', beds=3, baths=2, sq_ft=1457, type=Residential, sale_data=Fri May 16 06:00:00 CEST 2008, price=300000.0, lattitude=38.905927, longtitude=-120.975169}
Home{street='9452 RED SPRUCE WAY', city='ELK GROVE', zip='95624', state='CA', beds=6, baths=3, sq_ft=2555, type=Residential, sale_data=Fri May 16 06:00:00 CEST 2008, price=300000.0, lattitude=38.404505, longtitude=-121.346938}
Home{street='5776 TERRACE DR', city='ROCKLIN', zip='95765', state='CA', beds=3, baths=2, sq_ft=1577, type=Residential, sale_data=Fri May 16 06:00:00 CEST 2008, price=300567.0, lattitude=38.800539, longtitude=-121.260979}
Home{street='5908 MCLEAN DR', city='ELK GROVE', zip='95757', state='CA', beds=5, baths=3, sq_ft=2592, type=Residential, sale_data=Fri May 16 06:00:00 CEST 2008, price=303000.0, lattitude=38.38912, longtitude=-121.434389}
Home{street='8215 PEREGRINE WAY', city='CITRUS HEIGHTS', zip='95610', state='CA', beds=3, baths=2, sq_ft=1401, type=Residential, sale_data=Fri May 16 06:00:00 CEST 2008, price=305000.0, lattitude=38.715493, longtitude=-121.26293}
Home{street='1104 HILLSDALE LN', city='LINCOLN', zip='95648', state='CA', beds=4, baths=2, sq_ft=0, type=Residential, sale_data=Fri May 16 06:00:00 CEST 2008, price=306000.0, lattitude=38.865017, longtitude=-121.32302}
Home{street='2949 PANAMA AVE', city='CARMICHAEL', zip='95608', state='CA', beds=3, baths=2, sq_ft=1502, type=Residential, sale_data=Fri May 16 06:00:00 CEST 2008, price=310000.0, lattitude=38.618369, longtitude=-121.326187}
Home{street='1356 HARTLEY WAY', city='FOLSOM', zip='95630', state='CA', beds=3, baths=2, sq_ft=1327, type=Residential, sale_data=Fri May 16 06:00:00 CEST 2008, price=310000.0, lattitude=38.651617, longtitude=-121.131674}
Home{street='633 HANISCH DR', city='ROSEVILLE', zip='95678', state='CA', beds=4, baths=3, sq_ft=1800, type=Residential, sale_data=Fri May 16 06:00:00 CEST 2008, price=310000.0, lattitude=38.76349, longtitude=-121.275881}
Home{street='63 ANGEL ISLAND CIR', city='SACRAMENTO', zip='95831', state='CA', beds=4, baths=2, sq_ft=2169, type=Residential, sale_data=Fri May 16 06:00:00 CEST 2008, price=311518.0, lattitude=38.490408, longtitude=-121.547664}
Home{street='1571 WILD OAK LN', city='LINCOLN', zip='95648', state='CA', beds=5, baths=3, sq_ft=2457, type=Residential, sale_data=Fri May 16 06:00:00 CEST 2008, price=312000.0, lattitude=38.844144, longtitude=-121.274174}
Home{street='5222 COPPER SUNSET WAY', city='RANCHO CORDOVA', zip='95742', state='CA', beds=0, baths=0, sq_ft=0, type=Residential, sale_data=Fri May 16 06:00:00 CEST 2008, price=313000.0, lattitude=38.529181, longtitude=-121.224755}
Home{street='5601 SPINDRIFT LN', city='ORANGEVALE', zip='95662', state='CA', beds=4, baths=2, sq_ft=2004, type=Residential, sale_data=Fri May 16 06:00:00 CEST 2008, price=315000.0, lattitude=38.668289, longtitude=-121.192316}
Home{street='652 FIFTEEN MILE DR', city='ROSEVILLE', zip='95678', state='CA', beds=4, baths=3, sq_ft=2212, type=Residential, sale_data=Fri May 16 06:00:00 CEST 2008, price=315000.0, lattitude=38.775872, longtitude=-121.298864}
Home{street='7921 DOE TRAIL WAY', city='ANTELOPE', zip='95843', state='CA', beds=5, baths=3, sq_ft=3134, type=Residential, sale_data=Fri May 16 06:00:00 CEST 2008, price=315000.0, lattitude=38.711927, longtitude=-121.343608}
Home{street='4204 LUSK DR', city='SACRAMENTO', zip='95864', state='CA', beds=3, baths=2, sq_ft=1360, type=Residential, sale_data=Fri May 16 06:00:00 CEST 2008, price=315000.0, lattitude=38.606569, longtitude=-121.368424}
Home{street='5321 DELTA DR', city='ROCKLIN', zip='95765', state='CA', beds=4, baths=2, sq_ft=0, type=Residential, sale_data=Fri May 16 06:00:00 CEST 2008, price=315000.0, lattitude=38.815493, longtitude=-121.262908}
Home{street='5608 ROSEDALE WAY', city='SACRAMENTO', zip='95822', state='CA', beds=3, baths=2, sq_ft=1276, type=Residential, sale_data=Fri May 16 06:00:00 CEST 2008, price=320000.0, lattitude=38.525115, longtitude=-121.518689}
Home{street='3372 BERETANIA WAY', city='SACRAMENTO', zip='95834', state='CA', beds=4, baths=3, sq_ft=2962, type=Residential, sale_data=Fri May 16 06:00:00 CEST 2008, price=322000.0, lattitude=38.64977, longtitude=-121.53448}
Home{street='2422 STEFANIE DR', city='ROCKLIN', zip='95765', state='CA', beds=4, baths=2, sq_ft=1888, type=Residential, sale_data=Fri May 16 06:00:00 CEST 2008, price=325000.0, lattitude=38.82273, longtitude=-121.26424}
Home{street='3232 PARKHAM DR', city='ROSEVILLE', zip='95747', state='CA', beds=0, baths=0, sq_ft=0, type=Residential, sale_data=Fri May 16 06:00:00 CEST 2008, price=325500.0, lattitude=38.772821, longtitude=-121.364821}
Home{street='448 ELMWOOD CT', city='ROSEVILLE', zip='95678', state='CA', beds=3, baths=2, sq_ft=0, type=Residential, sale_data=Fri May 16 06:00:00 CEST 2008, price=326951.0, lattitude=38.771917, longtitude=-121.304439}
Home{street='1214 DAWNWOOD DR', city='GALT', zip='95632', state='CA', beds=3, baths=2, sq_ft=1548, type=Residential, sale_data=Fri May 16 06:00:00 CEST 2008, price=328370.0, lattitude=38.290119, longtitude=-121.286023}
Home{street='1440 EMERALD LN', city='LINCOLN', zip='95648', state='CA', beds=2, baths=2, sq_ft=0, type=Residential, sale_data=Fri May 16 06:00:00 CEST 2008, price=330000.0, lattitude=38.861864, longtitude=-121.267478}
Home{street='3349 CORVINA DR', city='RANCHO CORDOVA', zip='95670', state='CA', beds=4, baths=3, sq_ft=2109, type=Residential, sale_data=Fri May 16 06:00:00 CEST 2008, price=330000.0, lattitude=38.580545, longtitude=-121.279016}
Home{street='10254 JULIANA WAY', city='SACRAMENTO', zip='95827', state='CA', beds=4, baths=2, sq_ft=2484, type=Residential, sale_data=Fri May 16 06:00:00 CEST 2008, price=331200.0, lattitude=38.56803, longtitude=-121.309966}
Home{street='149 OPUS CIR', city='SACRAMENTO', zip='95834', state='CA', beds=4, baths=3, sq_ft=2258, type=Residential, sale_data=Fri May 16 06:00:00 CEST 2008, price=332000.0, lattitude=38.6354, longtitude=-121.53499}
Home{street='580 REGENCY PARK CIR', city='SACRAMENTO', zip='95835', state='CA', beds=3, baths=3, sq_ft=2212, type=Residential, sale_data=Fri May 16 06:00:00 CEST 2008, price=334000.0, lattitude=38.674864, longtitude=-121.4958}
Home{street='5544 CAMAS CT', city='ORANGEVALE', zip='95662', state='CA', beds=3, baths=2, sq_ft=1616, type=Residential, sale_data=Fri May 16 06:00:00 CEST 2008, price=335000.0, lattitude=38.667703, longtitude=-121.209456}
Home{street='5102 ARCHCREST WAY', city='SACRAMENTO', zip='95835', state='CA', beds=4, baths=2, sq_ft=2372, type=Residential, sale_data=Fri May 16 06:00:00 CEST 2008, price=341000.0, lattitude=38.66841, longtitude=-121.494639}
Home{street='5725 BALFOR RD', city='ROCKLIN', zip='95765', state='CA', beds=5, baths=3, sq_ft=2606, type=Residential, sale_data=Fri May 16 06:00:00 CEST 2008, price=346375.0, lattitude=38.807816, longtitude=-121.270008}
Home{street='7697 ROSEHALL DR', city='ROSEVILLE', zip='95678', state='CA', beds=5, baths=3, sq_ft=0, type=Residential, sale_data=Fri May 16 06:00:00 CEST 2008, price=347225.0, lattitude=38.79218, longtitude=-121.28595}
Home{street='4821 HUTSON WAY', city='ELK GROVE', zip='95757', state='CA', beds=5, baths=3, sq_ft=2877, type=Residential, sale_data=Fri May 16 06:00:00 CEST 2008, price=349000.0, lattitude=38.386239, longtitude=-121.448159}
